[
  {
    "numer": 1010106,
    "kod": "A010106",
    "adres": "ul. Moniuszki 4",
    "lon": 21.012071704836,
    "lat": 52.235052268632,
    "strefa": "Warszawa CPG 1450",
    "id": "A010106_1010106"
  },
  {
    "numer": 1010109,
    "kod": "A010109",
    "adres": "ul. Jasna 7",
    "lon": 21.011165905319,
    "lat": 52.23511270036,
    "strefa": "Warszawa CPG 1450",
    "id": "A010109_1010109"
  },
  {
    "numer": 1010110,
    "kod": "A010110",
    "adres": "ul. Moniuszki",
    "lon": 21.011054002807,
    "lat": 52.234824548268,
    "strefa": "Warszawa CPG 1450",
    "id": "A010110_1010110"
  },
  {
    "numer": 1010112,
    "kod": "A010112",
    "adres": "al. Prymasa Tysiąclecia 60/62",
    "lon": 21.010323752038,
    "lat": 52.234477021933,
    "strefa": "Warszawa CPG 1450",
    "id": "A010112_1010112"
  },
  {
    "numer": 1010114,
    "kod": "A010114",
    "adres": "pl. Powstańców 1",
    "lon": 21.013199195836,
    "lat": 52.234944705582,
    "strefa": "Warszawa CPG 1450",
    "id": "A010114_1010114"
  },
  {
    "numer": 1010116,
    "kod": "A010116",
    "adres": "pl. Powstańców",
    "lon": 21.013333082473,
    "lat": 52.234649129347,
    "strefa": "Warszawa CPG 1450",
    "id": "A010116_1010116"
  },
  {
    "numer": 1010117,
    "kod": "A010117",
    "adres": "pl. Powstańców 1",
    "lon": 21.013677038982,
    "lat": 52.234092608919,
    "strefa": "Warszawa CPG 240",
    "id": "A010117_1010117"
  },
  {
    "numer": 1010118,
    "kod": "A010118",
    "adres": "ul. Boduena 1",
    "lon": 21.013487433638,
    "lat": 52.233782172882,
    "strefa": "Warszawa CPG 1450",
    "id": "A010118_1010118"
  },
  {
    "numer": 1010120,
    "kod": "A010120",
    "adres": "ul. Brokla 4",
    "lon": 21.013284393132,
    "lat": 52.23334717185,
    "strefa": "Warszawa CPG 1450",
    "id": "A010120_1010120"
  },
  {
    "numer": 1010122,
    "kod": "A010122",
    "adres": "ul. Sienkiewicza 5",
    "lon": 21.0125045,
    "lat": 52.2343202,
    "strefa": "Warszawa CPG 1450",
    "id": "A010122_1010122"
  },
  {
    "numer": 1010123,
    "kod": "A010123",
    "adres": "ul. Okopowa 25 / Żytnia",
    "lon": 21.0125971,
    "lat": 52.2344267,
    "strefa": "Warszawa CPG 1450",
    "id": "A010123_1010123"
  },
  {
    "numer": 1010124,
    "kod": "A010124",
    "adres": "ul. Jasna 5",
    "lon": 21.011594461347,
    "lat": 52.23451655163,
    "strefa": "Warszawa CPG 1450",
    "id": "A010124_1010124"
  },
  {
    "numer": 1010125,
    "kod": "A010125",
    "adres": "ul. Jasna 1",
    "lon": 21.012010523699,
    "lat": 52.233893151372,
    "strefa": "Warszawa CPG 1450",
    "id": "A010125_1010125"
  },
  {
    "numer": 1010127,
    "kod": "A010127",
    "adres": "ul. Jasna (parking)",
    "lon": 21.012341280214,
    "lat": 52.233434316326,
    "strefa": "Warszawa CPG 1450",
    "id": "A010127_1010127"
  },
  {
    "numer": 1010128,
    "kod": "A010128",
    "adres": "ul. Jasna 1",
    "lon": 21.011774042856,
    "lat": 52.23345346991,
    "strefa": "Warszawa CPG 1450",
    "id": "A010128_1010128"
  },
  {
    "numer": 1010129,
    "kod": "A010129",
    "adres": "ul. Zgoda 12",
    "lon": 21.0111333,
    "lat": 52.2338067,
    "strefa": "Warszawa CPG 1450",
    "id": "A010129_1010129"
  },
  {
    "numer": 1010130,
    "kod": "A010130",
    "adres": "ul. Sienkiewicza 7",
    "lon": 21.011646514696,
    "lat": 52.234064124661,
    "strefa": "Warszawa CPG 1450",
    "id": "A010130_1010130"
  },
  {
    "numer": 1010131,
    "kod": "A010131",
    "adres": "ul. Moniuszki 1",
    "lon": 21.012509,
    "lat": 52.2350568,
    "strefa": "Warszawa CPG 1450",
    "id": "A010131_1010131"
  },
  {
    "numer": 1010133,
    "kod": "A010133",
    "adres": "ul. Sienkiewicza/Marszałkowska",
    "lon": 21.0101787,
    "lat": 52.2337253,
    "strefa": "Warszawa CPG 1450",
    "id": "A010133_1010133"
  },
  {
    "numer": 1010134,
    "kod": "A010134",
    "adres": "ul. Sienkiewicza vis/vis 12/14",
    "lon": 21.0106681,
    "lat": 52.2338248,
    "strefa": "Warszawa CPG 1450",
    "id": "A010134_1010134"
  },
  {
    "numer": 1010135,
    "kod": "A010135",
    "adres": "ul. Okopowa / H. Barona",
    "lon": 21.01058020423,
    "lat": 52.233504785875,
    "strefa": "Warszawa CPG 1450",
    "id": "A010135_1010135"
  },
  {
    "numer": 1010136,
    "kod": "A010136",
    "adres": "ul. Zgoda 13",
    "lon": 21.0110344,
    "lat": 52.2336447,
    "strefa": "Warszawa CPG 1450",
    "id": "A010136_1010136"
  },
  {
    "numer": 1010137,
    "kod": "A010137",
    "adres": "ul. Złota 6",
    "lon": 21.010844667984,
    "lat": 52.233289184258,
    "strefa": "Warszawa CPG 1450",
    "id": "A010137_1010137"
  },
  {
    "numer": 1010138,
    "kod": "A010138",
    "adres": "ul. Zgoda",
    "lon": 21.0120432725,
    "lat": 52.233132598131,
    "strefa": "Warszawa CPG 1450",
    "id": "A010138_1010138"
  },
  {
    "numer": 1010139,
    "kod": "A010139",
    "adres": "ul. Złota 6",
    "lon": 21.011312290732,
    "lat": 52.232995585867,
    "strefa": "Warszawa CPG 1450",
    "id": "A010139_1010139"
  },
  {
    "numer": 1010201,
    "kod": "A010201",
    "adres": "ul. Złota 7",
    "lon": 21.011553524622,
    "lat": 52.232763769556,
    "strefa": "Warszawa CPG 1450",
    "id": "A010201_1010201"
  },
  {
    "numer": 1010202,
    "kod": "A010202",
    "adres": "ul. H. Barona / Karolkowa 84",
    "lon": 21.012207500376,
    "lat": 52.23293024681,
    "strefa": "Warszawa CPG 1450",
    "id": "A010202_1010202"
  },
  {
    "numer": 1010203,
    "kod": "A010203",
    "adres": "ul. Zgoda vis/vis 5",
    "lon": 21.013015819618,
    "lat": 52.233086967914,
    "strefa": "Warszawa CPG 1450",
    "id": "A010203_1010203"
  },
  {
    "numer": 1010206,
    "kod": "A010206",
    "adres": "ul. Szpitalna 3",
    "lon": 21.014897164085,
    "lat": 52.232856491213,
    "strefa": "Warszawa CPG 1450",
    "id": "A010206_1010206"
  },
  {
    "numer": 1010208,
    "kod": "A010208",
    "adres": "ul. Zgoda 1",
    "lon": 21.014318406591,
    "lat": 52.232576140356,
    "strefa": "Warszawa CPG 1450",
    "id": "A010208_1010208"
  },
  {
    "numer": 1010209,
    "kod": "A010209",
    "adres": "ul. Zgoda 4",
    "lon": 21.014180681492,
    "lat": 52.232745421247,
    "strefa": "Warszawa CPG 1450",
    "id": "A010209_1010209"
  },
  {
    "numer": 1010306,
    "kod": "A010306",
    "adres": "ul. Kubusia Puchatka",
    "lon": 21.016833225795,
    "lat": 52.236161746555,
    "strefa": "Warszawa CPG 1450",
    "id": "A010306_1010306"
  },
  {
    "numer": 1010307,
    "kod": "A010307",
    "adres": "ul. Kubusia Puchatka",
    "lon": 21.016836080391,
    "lat": 52.235793635124,
    "strefa": "Warszawa CPG 1450",
    "id": "A010307_1010307"
  },
  {
    "numer": 1010308,
    "kod": "A010308",
    "adres": "ul. Kubusia Puchatka",
    "lon": 21.017191500629,
    "lat": 52.235457563282,
    "strefa": "Warszawa CPG 1450",
    "id": "A010308_1010308"
  },
  {
    "numer": 1010309,
    "kod": "A010309",
    "adres": "ul. Warecka 8",
    "lon": 21.01643377862,
    "lat": 52.235255039409,
    "strefa": "Warszawa CPG 1450",
    "id": "A010309_1010309"
  },
  {
    "numer": 1010310,
    "kod": "A010310",
    "adres": "ul. Warecka 10",
    "lon": 21.015456268284,
    "lat": 52.235018543333,
    "strefa": "Warszawa CPG 1450",
    "id": "A010310_1010310"
  },
  {
    "numer": 1010311,
    "kod": "A010311",
    "adres": "pl. Powstańców 4",
    "lon": 21.01399832113,
    "lat": 52.235042586187,
    "strefa": "Warszawa CPG 1450",
    "id": "A010311_1010311"
  },
  {
    "numer": 1010313,
    "kod": "A010313",
    "adres": "ul. Warecka - pl. Powstańców",
    "lon": 21.014408381854,
    "lat": 52.234700679368,
    "strefa": "Warszawa CPG 1450",
    "id": "A010313_1010313"
  },
  {
    "numer": 1010314,
    "kod": "A010314",
    "adres": "ul. Warecka 10",
    "lon": 21.015529665106,
    "lat": 52.235038730449,
    "strefa": "Warszawa CPG 1450",
    "id": "A010314_1010314"
  },
  {
    "numer": 1010316,
    "kod": "A010316",
    "adres": "ul. Tuwima/Górskiego 4",
    "lon": 21.016800615524,
    "lat": 52.234440065375,
    "strefa": "Warszawa CPG 1450",
    "id": "A010316_1010316"
  },
  {
    "numer": 1010317,
    "kod": "A010317",
    "adres": "ul. E. Gibalskiego 8",
    "lon": 21.017172391331,
    "lat": 52.234205888832,
    "strefa": "Warszawa CPG 1450",
    "id": "A010317_1010317"
  },
  {
    "numer": 1010318,
    "kod": "A010318",
    "adres": "ul. Baczyńskiego 4",
    "lon": 21.016199447557,
    "lat": 52.234904418475,
    "strefa": "Warszawa CPG 1450",
    "id": "A010318_1010318"
  },
  {
    "numer": 1010319,
    "kod": "A010319",
    "adres": "ul. Baczyńskiego 2",
    "lon": 21.016524247685,
    "lat": 52.234219349103,
    "strefa": "Warszawa CPG 1450",
    "id": "A010319_1010319"
  },
  {
    "numer": 1010321,
    "kod": "A010321",
    "adres": "ul. Górskiego 7",
    "lon": 21.015239209251,
    "lat": 52.233746780445,
    "strefa": "Warszawa CPG 1450",
    "id": "A010321_1010321"
  },
  {
    "numer": 1010322,
    "kod": "A010322",
    "adres": "ul. Górskiego 9",
    "lon": 21.01519874933,
    "lat": 52.233580310242,
    "strefa": "Warszawa CPG 1450",
    "id": "A010322_1010322"
  },
  {
    "numer": 1010323,
    "kod": "A010323",
    "adres": "ul. Górskiego 8",
    "lon": 21.014583400198,
    "lat": 52.233587809876,
    "strefa": "Warszawa CPG 1450",
    "id": "A010323_1010323"
  },
  {
    "numer": 1010324,
    "kod": "A010324",
    "adres": "pl. Powstańców 2-4",
    "lon": 21.014178705696,
    "lat": 52.234221609286,
    "strefa": "Warszawa CPG 1450",
    "id": "A010324_1010324"
  },
  {
    "numer": 1030101,
    "kod": "A030101",
    "adres": "ul. Skierniewicka 14",
    "lon": 21.007972027285,
    "lat": 52.238461152734,
    "strefa": "Warszawa CPG 1450",
    "id": "A030101_1030101"
  },
  {
    "numer": 1030102,
    "kod": "A030102",
    "adres": "ul. Królewska 27",
    "lon": 21.008922889715,
    "lat": 52.238762245092,
    "strefa": "Warszawa CPG 1450",
    "id": "A030102_1030102"
  },
  {
    "numer": 1030103,
    "kod": "A030103",
    "adres": "ul. Królewska 27",
    "lon": 21.009868708985,
    "lat": 52.239042325812,
    "strefa": "Warszawa CPG 1450",
    "id": "A030103_1030103"
  },
  {
    "numer": 1030104,
    "kod": "A030104",
    "adres": "pl. Małachowskiego 3",
    "lon": 21.011888890873,
    "lat": 52.239563860015,
    "strefa": "Warszawa CPG 1450",
    "id": "A030104_1030104"
  },
  {
    "numer": 1030105,
    "kod": "A030105",
    "adres": "pl. Małachowskiego",
    "lon": 21.012062902762,
    "lat": 52.239035965373,
    "strefa": "Warszawa CPG 1450",
    "id": "A030105_1030105"
  },
  {
    "numer": 1030107,
    "kod": "A030107",
    "adres": "ul. Sokołowska 11",
    "lon": 21.011099834497,
    "lat": 52.238435480031,
    "strefa": "Warszawa CPG 1450",
    "id": "A030107_1030107"
  },
  {
    "numer": 1030109,
    "kod": "A030109",
    "adres": "pl. Dąbrowskiego 7",
    "lon": 21.008564897404,
    "lat": 52.237195302747,
    "strefa": "Warszawa CPG 1450",
    "id": "A030109_1030109"
  },
  {
    "numer": 1030110,
    "kod": "A030110",
    "adres": "pl. Dąbrowskiego 5",
    "lon": 21.008813406449,
    "lat": 52.236766927671,
    "strefa": "Warszawa CPG 1450",
    "id": "A030110_1030110"
  },
  {
    "numer": 1030111,
    "kod": "A030111",
    "adres": "ul. Syreny 8",
    "lon": 21.009190696017,
    "lat": 52.236166822706,
    "strefa": "Warszawa CPG 1450",
    "id": "A030111_1030111"
  },
  {
    "numer": 1030113,
    "kod": "A030113",
    "adres": "ul. Marszałkowska 138",
    "lon": 21.00837848534,
    "lat": 52.235948218891,
    "strefa": "Warszawa CPG 1450",
    "id": "A030113_1030113"
  },
  {
    "numer": 1030114,
    "kod": "A030114",
    "adres": "ul. Rysia 1",
    "lon": 21.00854082196,
    "lat": 52.236352606825,
    "strefa": "Warszawa CPG 1450",
    "id": "A030114_1030114"
  },
  {
    "numer": 1030115,
    "kod": "A030115",
    "adres": "ul. Marszałkowska 140",
    "lon": 21.007911887877,
    "lat": 52.23667515067,
    "strefa": "Warszawa CPG 1450",
    "id": "A030115_1030115"
  },
  {
    "numer": 1030116,
    "kod": "A030116",
    "adres": "ul. Marszałkowska 140",
    "lon": 21.007694139522,
    "lat": 52.237255689104,
    "strefa": "Warszawa CPG 1450",
    "id": "A030116_1030116"
  },
  {
    "numer": 1030117,
    "kod": "A030117",
    "adres": "ul. Stalowa 73",
    "lon": 21.0074200921,
    "lat": 52.237664326995,
    "strefa": "Warszawa CPG 1450",
    "id": "A030117_1030117"
  },
  {
    "numer": 1030118,
    "kod": "A030118",
    "adres": "ul. Królewska / Burschego",
    "lon": 21.011043920481,
    "lat": 52.239493579031,
    "strefa": "Warszawa CPG 1450",
    "id": "A030118_1030118"
  },
  {
    "numer": 1030201,
    "kod": "A030201",
    "adres": "ul. Szkolna 2",
    "lon": 21.009571637839,
    "lat": 52.235932852301,
    "strefa": "Warszawa CPG 1450",
    "id": "A030201_1030201"
  },
  {
    "numer": 1030202,
    "kod": "A030202",
    "adres": "ul. Sokołowska 4",
    "lon": 21.009213260169,
    "lat": 52.236512233654,
    "strefa": "Warszawa CPG 1450",
    "id": "A030202_1030202"
  },
  {
    "numer": 1030203,
    "kod": "A030203",
    "adres": "pl. Dąbrowskiego 5",
    "lon": 21.008971274704,
    "lat": 52.236918823792,
    "strefa": "Warszawa CPG 1450",
    "id": "A030203_1030203"
  },
  {
    "numer": 1030204,
    "kod": "A030204",
    "adres": "pl. Dąbrowskiego 12",
    "lon": 21.008974827351,
    "lat": 52.237499829539,
    "strefa": "Warszawa CPG 1450",
    "id": "A030204_1030204"
  },
  {
    "numer": 1030205,
    "kod": "A030205",
    "adres": "ul. Kredytowa 5-7",
    "lon": 21.010216996313,
    "lat": 52.237802884071,
    "strefa": "Warszawa CPG 1450",
    "id": "A030205_1030205"
  },
  {
    "numer": 1030206,
    "kod": "A030206",
    "adres": "ul. Kredytowa 1",
    "lon": 21.01176415062,
    "lat": 52.238173417454,
    "strefa": "Warszawa CPG 1450",
    "id": "A030206_1030206"
  },
  {
    "numer": 1030207,
    "kod": "A030207",
    "adres": "ul. Wolska / Młynarska 8/12",
    "lon": 21.012876210013,
    "lat": 52.237893376257,
    "strefa": "Warszawa CPG 1450",
    "id": "A030207_1030207"
  },
  {
    "numer": 1030208,
    "kod": "A030208",
    "adres": "ul. Mazowiecka 11",
    "lon": 21.013031676519,
    "lat": 52.237253062102,
    "strefa": "Warszawa CPG 1450",
    "id": "A030208_1030208"
  },
  {
    "numer": 1030209,
    "kod": "A030209",
    "adres": "ul. Mazowiecka 3-5",
    "lon": 21.01311041492,
    "lat": 52.236733258274,
    "strefa": "Warszawa CPG 1450",
    "id": "A030209_1030209"
  },
  {
    "numer": 1030215,
    "kod": "A030215",
    "adres": "pl. Dąbrowskiego 1",
    "lon": 21.009608870024,
    "lat": 52.236796020633,
    "strefa": "Warszawa CPG 1450",
    "id": "A030215_1030215"
  },
  {
    "numer": 1030216,
    "kod": "A030216",
    "adres": "pl. Dąbrowskiego 2-4",
    "lon": 21.010149176687,
    "lat": 52.236881337901,
    "strefa": "Warszawa CPG 1450",
    "id": "A030216_1030216"
  },
  {
    "numer": 1030301,
    "kod": "A030301",
    "adres": "ul. Królewska 1-7",
    "lon": 21.014786188755,
    "lat": 52.240507659219,
    "strefa": "Warszawa CPG 1450",
    "id": "A030301_1030301"
  },
  {
    "numer": 1030302,
    "kod": "A030302",
    "adres": "ul. J. Szymczaka / S. Klonowicza",
    "lon": 21.01556725368,
    "lat": 52.240623531302,
    "strefa": "Warszawa CPG 1450",
    "id": "A030302_1030302"
  },
  {
    "numer": 1030304,
    "kod": "A030304",
    "adres": "ul. Skierniewicka 21",
    "lon": 21.016766491982,
    "lat": 52.239422664863,
    "strefa": "Warszawa CPG 1450",
    "id": "A030304_1030304"
  },
  {
    "numer": 1030305,
    "kod": "A030305",
    "adres": "ul. Wolska 67",
    "lon": 21.015421513688,
    "lat": 52.239190119199,
    "strefa": "Warszawa CPG 1450",
    "id": "A030305_1030305"
  },
  {
    "numer": 1030306,
    "kod": "A030306",
    "adres": "ul. Pasaż Niżyńskiego",
    "lon": 21.014445810922,
    "lat": 52.239654714243,
    "strefa": "Warszawa CPG 1450",
    "id": "A030306_1030306"
  },
  {
    "numer": 1030307,
    "kod": "A030307",
    "adres": "ul. Pasaż Niżyńskiego",
    "lon": 21.014297401452,
    "lat": 52.240184511022,
    "strefa": "Warszawa CPG 1450",
    "id": "A030307_1030307"
  },
  {
    "numer": 1030308,
    "kod": "A030308",
    "adres": "ul. Pasaż Niżyńskiego",
    "lon": 21.014145867918,
    "lat": 52.240000342683,
    "strefa": "Warszawa CPG 1450",
    "id": "A030308_1030308"
  },
  {
    "numer": 1030309,
    "kod": "A030309",
    "adres": "ul. Pasaż Niżyńskiego",
    "lon": 21.014358378573,
    "lat": 52.239278507684,
    "strefa": "Warszawa CPG 1450",
    "id": "A030309_1030309"
  },
  {
    "numer": 1030310,
    "kod": "A030310",
    "adres": "ul. Traugutta",
    "lon": 21.013509198421,
    "lat": 52.238838991873,
    "strefa": "Warszawa CPG 1450",
    "id": "A030310_1030310"
  },
  {
    "numer": 1030311,
    "kod": "A030311",
    "adres": "pl. Małachowskiego 2",
    "lon": 21.012567222866,
    "lat": 52.239255554618,
    "strefa": "Warszawa CPG 1450",
    "id": "A030311_1030311"
  },
  {
    "numer": 1030401,
    "kod": "A030401",
    "adres": "ul. Traugutta 3",
    "lon": 21.015994297821,
    "lat": 52.239188578402,
    "strefa": "Warszawa CPG 1450",
    "id": "A030401_1030401"
  },
  {
    "numer": 1030402,
    "kod": "A030402",
    "adres": "ul. Traugutta 5a",
    "lon": 21.014757209976,
    "lat": 52.238954516905,
    "strefa": "Warszawa CPG 1450",
    "id": "A030402_1030402"
  },
  {
    "numer": 1030403,
    "kod": "A030403",
    "adres": "ul. Czackiego 21-23",
    "lon": 21.014657613782,
    "lat": 52.238582926177,
    "strefa": "Warszawa CPG 1450",
    "id": "A030403_1030403"
  },
  {
    "numer": 1030404,
    "kod": "A030404",
    "adres": "ul. Wolska 75",
    "lon": 21.01449021892,
    "lat": 52.238429989317,
    "strefa": "Warszawa CPG 1450",
    "id": "A030404_1030404"
  },
  {
    "numer": 1030405,
    "kod": "A030405",
    "adres": "ul. Czackiego 21-23",
    "lon": 21.014795153348,
    "lat": 52.238093167776,
    "strefa": "Warszawa CPG 1450",
    "id": "A030405_1030405"
  },
  {
    "numer": 1030406,
    "kod": "A030406",
    "adres": "ul. Czackiego 15-17",
    "lon": 21.014791435349,
    "lat": 52.237675114911,
    "strefa": "Warszawa CPG 1450",
    "id": "A030406_1030406"
  },
  {
    "numer": 1030407,
    "kod": "A030407",
    "adres": "ul. Czackiego 7-11",
    "lon": 21.015130233322,
    "lat": 52.237425459041,
    "strefa": "Warszawa CPG 1450",
    "id": "A030407_1030407"
  },
  {
    "numer": 1030408,
    "kod": "A030408",
    "adres": "ul. Dowcip",
    "lon": 21.014002404506,
    "lat": 52.237229831668,
    "strefa": "Warszawa CPG 1450",
    "id": "A030408_1030408"
  },
  {
    "numer": 1030409,
    "kod": "A030409",
    "adres": "ul. Wolska 88",
    "lon": 21.014976647463,
    "lat": 52.237184904131,
    "strefa": "Warszawa CPG 1450",
    "id": "A030409_1030409"
  },
  {
    "numer": 1030410,
    "kod": "A030410",
    "adres": "ul. Grabowska 4",
    "lon": 21.015315943385,
    "lat": 52.236897801561,
    "strefa": "Warszawa CPG 1450",
    "id": "A030410_1030410"
  },
  {
    "numer": 1030415,
    "kod": "A030415",
    "adres": "ul. Krakowskie Przedm. Kościół",
    "lon": 21.017298654067,
    "lat": 52.238940565739,
    "strefa": "Warszawa CPG 1450",
    "id": "A030415_1030415"
  },
  {
    "numer": 1070101,
    "kod": "A070101",
    "adres": "al. Solidarności 77",
    "lon": 21.00286544403,
    "lat": 52.244617803301,
    "strefa": "Warszawa CPG 1450",
    "id": "A070101_1070101"
  },
  {
    "numer": 1070102,
    "kod": "A070102",
    "adres": "ul. Grodzieńska 22",
    "lon": 21.004140917248,
    "lat": 52.244791163704,
    "strefa": "Warszawa CPG 1450",
    "id": "A070102_1070102"
  },
  {
    "numer": 1070104,
    "kod": "A070104",
    "adres": "ul. Corazziego 2",
    "lon": 21.004585391521,
    "lat": 52.244329135711,
    "strefa": "Warszawa CPG 1450",
    "id": "A070104_1070104"
  },
  {
    "numer": 1070105,
    "kod": "A070105",
    "adres": "ul. Corazziego 5",
    "lon": 21.003840688354,
    "lat": 52.244111913418,
    "strefa": "Warszawa CPG 1450",
    "id": "A070105_1070105"
  },
  {
    "numer": 1070106,
    "kod": "A070106",
    "adres": "ul. Bielańska 3",
    "lon": 21.006181901167,
    "lat": 52.244450904161,
    "strefa": "Warszawa CPG 1450",
    "id": "A070106_1070106"
  },
  {
    "numer": 1070107,
    "kod": "A070107",
    "adres": "ul. Bielańska 1",
    "lon": 21.007085323651,
    "lat": 52.244099515864,
    "strefa": "Warszawa CPG 1450",
    "id": "A070107_1070107"
  },
  {
    "numer": 1070108,
    "kod": "A070108",
    "adres": "ul. Kolska / Okopowa 59",
    "lon": 21.007101911758,
    "lat": 52.243695892214,
    "strefa": "Warszawa CPG 1450",
    "id": "A070108_1070108"
  },
  {
    "numer": 1070109,
    "kod": "A070109",
    "adres": "ul. Senatorska 24",
    "lon": 21.006465778177,
    "lat": 52.243468986438,
    "strefa": "Warszawa CPG 1450",
    "id": "A070109_1070109"
  },
  {
    "numer": 1070111,
    "kod": "A070111",
    "adres": "ul. Senatorska 28",
    "lon": 21.005282923053,
    "lat": 52.243035544533,
    "strefa": "Warszawa CPG 1450",
    "id": "A070111_1070111"
  },
  {
    "numer": 1070113,
    "kod": "A070113",
    "adres": "ul. Senatorska 30",
    "lon": 21.004321778547,
    "lat": 52.243295119853,
    "strefa": "Warszawa CPG 1450",
    "id": "A070113_1070113"
  },
  {
    "numer": 1070114,
    "kod": "A070114",
    "adres": "ul. Senatorska 38",
    "lon": 21.003977839993,
    "lat": 52.243115728625,
    "strefa": "Warszawa CPG 1450",
    "id": "A070114_1070114"
  },
  {
    "numer": 1070116,
    "kod": "A070116",
    "adres": "ul. Senatorska 37",
    "lon": 21.004198348076,
    "lat": 52.242580036821,
    "strefa": "Warszawa CPG 1450",
    "id": "A070116_1070116"
  },
  {
    "numer": 1070118,
    "kod": "A070118",
    "adres": "ul. Senatorska 35",
    "lon": 21.005124096636,
    "lat": 52.242784477371,
    "strefa": "Warszawa CPG 1450",
    "id": "A070118_1070118"
  },
  {
    "numer": 1070119,
    "kod": "A070119",
    "adres": "ul. Senatorska 27",
    "lon": 21.006876022071,
    "lat": 52.24345292998,
    "strefa": "Warszawa CPG 1450",
    "id": "A070119_1070119"
  },
  {
    "numer": 1070121,
    "kod": "A070121",
    "adres": "ul. Wierzbowa 3",
    "lon": 21.009194059221,
    "lat": 52.243135942958,
    "strefa": "Warszawa CPG 1450",
    "id": "A070121_1070121"
  },
  {
    "numer": 1070123,
    "kod": "A070123",
    "adres": "ul. Canaletta v/v 4",
    "lon": 21.007439679882,
    "lat": 52.243026148434,
    "strefa": "Warszawa CPG 1450",
    "id": "A070123_1070123"
  },
  {
    "numer": 1070124,
    "kod": "A070124",
    "adres": "ul. Canaletta 2",
    "lon": 21.008442939694,
    "lat": 52.242862040613,
    "strefa": "Warszawa CPG 1450",
    "id": "A070124_1070124"
  },
  {
    "numer": 1070125,
    "kod": "A070125",
    "adres": "ul. Szwedzka 33 / Kowieńska",
    "lon": 21.008977298438,
    "lat": 52.242553755586,
    "strefa": "Warszawa CPG 1450",
    "id": "A070125_1070125"
  },
  {
    "numer": 1070126,
    "kod": "A070126",
    "adres": "ul. Niecała 7",
    "lon": 21.008691263055,
    "lat": 52.242334368368,
    "strefa": "Warszawa CPG 1450",
    "id": "A070126_1070126"
  },
  {
    "numer": 1070127,
    "kod": "A070127",
    "adres": "ul. Fredry 6",
    "lon": 21.010101471788,
    "lat": 52.242254449374,
    "strefa": "Warszawa CPG 1450",
    "id": "A070127_1070127"
  },
  {
    "numer": 1070128,
    "kod": "A070128",
    "adres": "ul. Kowieńska 9",
    "lon": 21.009678582577,
    "lat": 52.241842862519,
    "strefa": "Warszawa CPG 1450",
    "id": "A070128_1070128"
  },
  {
    "numer": 1070130,
    "kod": "A070130",
    "adres": "ul. Królewska 23",
    "lon": 21.010033686842,
    "lat": 52.239357514367,
    "strefa": "Warszawa CPG 1450",
    "id": "A070130_1070130"
  },
  {
    "numer": 1070131,
    "kod": "A070131",
    "adres": "ul. Królewska 27",
    "lon": 21.008571761902,
    "lat": 52.238956922294,
    "strefa": "Warszawa CPG 1450",
    "id": "A070131_1070131"
  },
  {
    "numer": 1070132,
    "kod": "A070132",
    "adres": "ul. Królewska 27",
    "lon": 21.008131148763,
    "lat": 52.238764004066,
    "strefa": "Warszawa CPG 1450",
    "id": "A070132_1070132"
  },
  {
    "numer": 1070201,
    "kod": "A070201",
    "adres": "al. Solidarności 71",
    "lon": 21.006271123915,
    "lat": 52.245849271706,
    "strefa": "Warszawa CPG 1450",
    "id": "A070201_1070201"
  },
  {
    "numer": 1070202,
    "kod": "A070202",
    "adres": "al. Solidarności 62 środek",
    "lon": 21.005200442719,
    "lat": 52.245628195484,
    "strefa": "Warszawa CPG 1450",
    "id": "A070202_1070202"
  },
  {
    "numer": 1070203,
    "kod": "A070203",
    "adres": "al. Solidarności 71",
    "lon": 21.00485024975,
    "lat": 52.245263813746,
    "strefa": "Warszawa CPG 1450",
    "id": "A070203_1070203"
  },
  {
    "numer": 1070204,
    "kod": "A070204",
    "adres": "ul. Bielańska 10",
    "lon": 21.005047685381,
    "lat": 52.244825761656,
    "strefa": "Warszawa CPG 1450",
    "id": "A070204_1070204"
  },
  {
    "numer": 1070205,
    "kod": "A070205",
    "adres": "ul. 11 Listopada 66A",
    "lon": 21.005913935752,
    "lat": 52.244671354005,
    "strefa": "Warszawa CPG 1450",
    "id": "A070205_1070205"
  },
  {
    "numer": 1070206,
    "kod": "A070206",
    "adres": "ul. Hipoteczna",
    "lon": 21.007115283037,
    "lat": 52.245465502323,
    "strefa": "Warszawa CPG 1450",
    "id": "A070206_1070206"
  },
  {
    "numer": 1070207,
    "kod": "A070207",
    "adres": "ul. Daniłowiczowska 18",
    "lon": 21.007275783929,
    "lat": 52.245263929793,
    "strefa": "Warszawa CPG 1450",
    "id": "A070207_1070207"
  },
  {
    "numer": 1070209,
    "kod": "A070209",
    "adres": "ul. Daniłowiczowska 11",
    "lon": 21.006803818862,
    "lat": 52.244679441785,
    "strefa": "Warszawa CPG 1450",
    "id": "A070209_1070209"
  },
  {
    "numer": 1070210,
    "kod": "A070210",
    "adres": "ul. Bielańska 6",
    "lon": 21.007032596786,
    "lat": 52.244309105028,
    "strefa": "Warszawa CPG 1450",
    "id": "A070210_1070210"
  },
  {
    "numer": 1070213,
    "kod": "A070213",
    "adres": "pl. Teatralny",
    "lon": 21.010779202966,
    "lat": 52.244639459823,
    "strefa": "Warszawa CPG 1450",
    "id": "A070213_1070213"
  },
  {
    "numer": 1070214,
    "kod": "A070214",
    "adres": "pl. Teatralny",
    "lon": 21.011025637453,
    "lat": 52.244409219899,
    "strefa": "Warszawa CPG 1450",
    "id": "A070214_1070214"
  },
  {
    "numer": 1070215,
    "kod": "A070215",
    "adres": "pl. Teatralny",
    "lon": 21.010072302912,
    "lat": 52.244368256981,
    "strefa": "Warszawa CPG 1450",
    "id": "A070215_1070215"
  },
  {
    "numer": 1070216,
    "kod": "A070216",
    "adres": "pl. Teatralny",
    "lon": 21.009406912466,
    "lat": 52.244100133132,
    "strefa": "Warszawa CPG 1450",
    "id": "A070216_1070216"
  },
  {
    "numer": 1070218,
    "kod": "A070218",
    "adres": "ul. Bródnowska 1",
    "lon": 21.008904849292,
    "lat": 52.243560871956,
    "strefa": "Warszawa CPG 1450",
    "id": "A070218_1070218"
  },
  {
    "numer": 1070219,
    "kod": "A070219",
    "adres": "pl. Teatralny",
    "lon": 21.00871775283,
    "lat": 52.243800295588,
    "strefa": "Warszawa CPG 1450",
    "id": "A070219_1070219"
  },
  {
    "numer": 1070220,
    "kod": "A070220",
    "adres": "pl. Teatralny",
    "lon": 21.00963939048,
    "lat": 52.243886677721,
    "strefa": "Warszawa CPG 1450",
    "id": "A070220_1070220"
  },
  {
    "numer": 1070221,
    "kod": "A070221",
    "adres": "pl. Teatralny",
    "lon": 21.010276972362,
    "lat": 52.24414091376,
    "strefa": "Warszawa CPG 1450",
    "id": "A070221_1070221"
  },
  {
    "numer": 1070223,
    "kod": "A070223",
    "adres": "ul. Moliera 5",
    "lon": 21.011422326068,
    "lat": 52.244083959509,
    "strefa": "Warszawa CPG 1450",
    "id": "A070223_1070223"
  },
  {
    "numer": 1070226,
    "kod": "A070226",
    "adres": "pl. Piłsudskiego 1",
    "lon": 21.012557766399,
    "lat": 52.24185838492,
    "strefa": "Warszawa CPG 1450",
    "id": "A070226_1070226"
  },
  {
    "numer": 1070301,
    "kod": "A070301",
    "adres": "ul. Nowy Przejazd",
    "lon": 21.009523003352,
    "lat": 52.245717036651,
    "strefa": "Warszawa CPG 1450",
    "id": "A070301_1070301"
  },
  {
    "numer": 1070303,
    "kod": "A070303",
    "adres": "ul. Senatorska 13-15",
    "lon": 21.012165746436,
    "lat": 52.245942666949,
    "strefa": "Warszawa CPG 1450",
    "id": "A070303_1070303"
  },
  {
    "numer": 1070304,
    "kod": "A070304",
    "adres": "ul. Moliera 6",
    "lon": 21.011672604898,
    "lat": 52.24402796547,
    "strefa": "Warszawa CPG 1450",
    "id": "A070304_1070304"
  },
  {
    "numer": 1070305,
    "kod": "A070305",
    "adres": "ul. Moliera 2",
    "lon": 21.011973724698,
    "lat": 52.24360025618,
    "strefa": "Warszawa CPG 1450",
    "id": "A070305_1070305"
  },
  {
    "numer": 1070306,
    "kod": "A070306",
    "adres": "ul. Trębacka 4",
    "lon": 21.012856459721,
    "lat": 52.243401168501,
    "strefa": "Warszawa CPG 1450",
    "id": "A070306_1070306"
  },
  {
    "numer": 1070309,
    "kod": "A070309",
    "adres": "ul. Powązkowska / Piaskowa",
    "lon": 21.013590095034,
    "lat": 52.243538765932,
    "strefa": "Warszawa CPG 1450",
    "id": "A070309_1070309"
  },
  {
    "numer": 1070310,
    "kod": "A070310",
    "adres": "ul. Trębacka 3",
    "lon": 21.013765553642,
    "lat": 52.24340765325,
    "strefa": "Warszawa CPG 1450",
    "id": "A070310_1070310"
  },
  {
    "numer": 1070316,
    "kod": "A070316",
    "adres": "ul. Tokarzewskiego - Karasz.",
    "lon": 21.014585418591,
    "lat": 52.241377736541,
    "strefa": "Warszawa CPG 1450",
    "id": "A070316_1070316"
  },
  {
    "numer": 1070318,
    "kod": "A070318",
    "adres": "ul. Tokarzewskiego - Karasz.",
    "lon": 21.015147135924,
    "lat": 52.241454690331,
    "strefa": "Warszawa CPG 1450",
    "id": "A070318_1070318"
  },
  {
    "numer": 1070319,
    "kod": "A070319",
    "adres": "ul. Królewska 2",
    "lon": 21.015254290928,
    "lat": 52.240735663769,
    "strefa": "Warszawa CPG 1450",
    "id": "A070319_1070319"
  },
  {
    "numer": 1070320,
    "kod": "A070320",
    "adres": "Hotel Raffles / Piłsudskiego",
    "lon": 21.014375404646,
    "lat": 52.241542798953,
    "strefa": "Warszawa CPG 1450",
    "id": "A070320_1070320"
  },
  {
    "numer": 1070321,
    "kod": "A070321",
    "adres": "ul. Tokarzewskiego-Karasz",
    "lon": 21.015217625795,
    "lat": 52.241674921571,
    "strefa": "Warszawa CPG 1450",
    "id": "A070321_1070321"
  },
  {
    "numer": 1070322,
    "kod": "A070322",
    "adres": "Hotel Raffles / Piłsudskiego",
    "lon": 21.014388867424,
    "lat": 52.241550306019,
    "strefa": "Warszawa CPG 1450",
    "id": "A070322_1070322"
  },
  {
    "numer": 1070323,
    "kod": "A070323",
    "adres": "ul. Ossolińskich 3",
    "lon": 21.014699003774,
    "lat": 52.24224956816,
    "strefa": "Warszawa CPG 1450",
    "id": "A070323_1070323"
  },
  {
    "numer": 1070324,
    "kod": "A070324",
    "adres": "ul. Senatorska 6",
    "lon": 21.011935049143,
    "lat": 52.245957461362,
    "strefa": "Warszawa CPG 1450",
    "id": "A070324_1070324"
  },
  {
    "numer": 1110101,
    "kod": "A110101",
    "adres": "pl. Mirowski",
    "lon": 20.999307218216,
    "lat": 52.239383139327,
    "strefa": "Warszawa CPG 1450",
    "id": "A110101_1110101"
  },
  {
    "numer": 1110102,
    "kod": "A110102",
    "adres": "ul. Płocka 41",
    "lon": 20.998338360956,
    "lat": 52.239244793495,
    "strefa": "Warszawa CPG 1450",
    "id": "A110102_1110102"
  },
  {
    "numer": 1110103,
    "kod": "A110103",
    "adres": "ul. Ptasia 3",
    "lon": 21.001068654392,
    "lat": 52.239724406679,
    "strefa": "Warszawa CPG 1450",
    "id": "A110103_1110103"
  },
  {
    "numer": 1110105,
    "kod": "A110105",
    "adres": "pl. Żelaznej Bramy",
    "lon": 21.003161091532,
    "lat": 52.239990616072,
    "strefa": "Warszawa CPG 1450",
    "id": "A110105_1110105"
  },
  {
    "numer": 1110106,
    "kod": "A110106",
    "adres": "ul. Marszałkowska 111",
    "lon": 21.004093431218,
    "lat": 52.23972776845,
    "strefa": "Warszawa CPG 1450",
    "id": "A110106_1110106"
  },
  {
    "numer": 1110107,
    "kod": "A110107",
    "adres": "pl. Mirowski",
    "lon": 20.997153467936,
    "lat": 52.239033252432,
    "strefa": "Warszawa CPG 1450",
    "id": "A110107_1110107"
  },
  {
    "numer": 1110108,
    "kod": "A110108",
    "adres": "ul. Sokołowska 3",
    "lon": 21.005252732017,
    "lat": 52.237966535231,
    "strefa": "Warszawa CPG 1450",
    "id": "A110108_1110108"
  },
  {
    "numer": 1110109,
    "kod": "A110109",
    "adres": "ul. Królewska",
    "lon": 21.004480764746,
    "lat": 52.237614594926,
    "strefa": "Warszawa CPG 1450",
    "id": "A110109_1110109"
  },
  {
    "numer": 1110110,
    "kod": "A110110",
    "adres": "ul. Grzybowska 4",
    "lon": 21.002199328374,
    "lat": 52.237370484621,
    "strefa": "Warszawa CPG 1450",
    "id": "A110110_1110110"
  },
  {
    "numer": 1110116,
    "kod": "A110116",
    "adres": "al. Jana Pawła II 20",
    "lon": 20.997880045323,
    "lat": 52.235009263968,
    "strefa": "Warszawa CPG 1450",
    "id": "A110116_1110116"
  },
  {
    "numer": 1110117,
    "kod": "A110117",
    "adres": "al. Jana Pawła II 20",
    "lon": 20.998063003872,
    "lat": 52.234618835032,
    "strefa": "Warszawa CPG 1450",
    "id": "A110117_1110117"
  },
  {
    "numer": 1110118,
    "kod": "A110118",
    "adres": "al. Jana Pawła II 26",
    "lon": 20.99716051002,
    "lat": 52.236962030687,
    "strefa": "Warszawa CPG 1450",
    "id": "A110118_1110118"
  },
  {
    "numer": 1110119,
    "kod": "A110119",
    "adres": "ul. Twarda 14",
    "lon": 20.999989656384,
    "lat": 52.234626005034,
    "strefa": "Warszawa CPG 1450",
    "id": "A110119_1110119"
  },
  {
    "numer": 1110120,
    "kod": "A110120",
    "adres": "ul. Graniczna",
    "lon": 21.003529411175,
    "lat": 52.237450709933,
    "strefa": "Warszawa CPG 1450",
    "id": "A110120_1110120"
  },
  {
    "numer": 1110121,
    "kod": "A110121",
    "adres": "ul. Marszałkowska 111",
    "lon": 21.005234724537,
    "lat": 52.238854675102,
    "strefa": "Warszawa CPG 1450",
    "id": "A110121_1110121"
  },
  {
    "numer": 1110122,
    "kod": "A110122",
    "adres": "ul. Twarda 2",
    "lon": 21.002360476652,
    "lat": 52.235463692945,
    "strefa": "Warszawa CPG 1450",
    "id": "A110122_1110122"
  },
  {
    "numer": 1110123,
    "kod": "A110123",
    "adres": "pl. Mirowski",
    "lon": 21.000394350436,
    "lat": 52.239091041007,
    "strefa": "Warszawa CPG 1450",
    "id": "A110123_1110123"
  },
  {
    "numer": 1110201,
    "kod": "A110201",
    "adres": "ul. Wolska / S. Staszica 4",
    "lon": 21.004525841779,
    "lat": 52.237391662258,
    "strefa": "Warszawa CPG 1450",
    "id": "A110201_1110201"
  },
  {
    "numer": 1110202,
    "kod": "A110202",
    "adres": "ul. Królewska 43",
    "lon": 21.005154607201,
    "lat": 52.237664850814,
    "strefa": "Warszawa CPG 1450",
    "id": "A110202_1110202"
  },
  {
    "numer": 1110203,
    "kod": "A110203",
    "adres": "ul. Królewska 29-41",
    "lon": 21.005978621094,
    "lat": 52.237818743124,
    "strefa": "Warszawa CPG 1450",
    "id": "A110203_1110203"
  },
  {
    "numer": 1110204,
    "kod": "A110204",
    "adres": "ul. Zielna 49",
    "lon": 21.005593405281,
    "lat": 52.237560663638,
    "strefa": "Warszawa CPG 1450",
    "id": "A110204_1110204"
  },
  {
    "numer": 1110206,
    "kod": "A110206",
    "adres": "ul. Zielna 45",
    "lon": 21.006052133893,
    "lat": 52.236791030246,
    "strefa": "Warszawa CPG 1450",
    "id": "A110206_1110206"
  },
  {
    "numer": 1110210,
    "kod": "A110210",
    "adres": "pl. Grzybowski 4",
    "lon": 21.003873188396,
    "lat": 52.236332608578,
    "strefa": "Warszawa CPG 1450",
    "id": "A110210_1110210"
  },
  {
    "numer": 1110214,
    "kod": "A110214",
    "adres": "pl. Grzybowski 2",
    "lon": 21.004190792678,
    "lat": 52.235813505135,
    "strefa": "Warszawa CPG 1450",
    "id": "A110214_1110214"
  },
  {
    "numer": 1110215,
    "kod": "A110215",
    "adres": "ul. Bagno vis/vis 7",
    "lon": 21.00407205595,
    "lat": 52.235556631361,
    "strefa": "Warszawa CPG 1450",
    "id": "A110215_1110215"
  },
  {
    "numer": 1110217,
    "kod": "A110217",
    "adres": "ul. Twarda 1",
    "lon": 21.002461955371,
    "lat": 52.235178495299,
    "strefa": "Warszawa CPG 1450",
    "id": "A110217_1110217"
  },
  {
    "numer": 1110219,
    "kod": "A110219",
    "adres": "ul. Wallenberga (Kościół)",
    "lon": 21.004278273947,
    "lat": 52.235003476398,
    "strefa": "Warszawa CPG 1450",
    "id": "A110219_1110219"
  },
  {
    "numer": 1110224,
    "kod": "A110224",
    "adres": "ul. Zielna 37",
    "lon": 21.006773573589,
    "lat": 52.235760962465,
    "strefa": "Warszawa CPG 1450",
    "id": "A110224_1110224"
  },
  {
    "numer": 1110225,
    "kod": "A110225",
    "adres": "ul. Marszałkowska 109",
    "lon": 21.006949405491,
    "lat": 52.237189913675,
    "strefa": "Warszawa CPG 1450",
    "id": "A110225_1110225"
  },
  {
    "numer": 1110229,
    "kod": "A110229",
    "adres": "ul. Bagno 5",
    "lon": 21.005359023406,
    "lat": 52.235682489744,
    "strefa": "Warszawa CPG 1450",
    "id": "A110229_1110229"
  },
  {
    "numer": 1110230,
    "kod": "A110230",
    "adres": "ul. Płocka 25",
    "lon": 21.006152496335,
    "lat": 52.235828418824,
    "strefa": "Warszawa CPG 1450",
    "id": "A110230_1110230"
  },
  {
    "numer": 1110231,
    "kod": "A110231",
    "adres": "ul. Zielna 39",
    "lon": 21.006640458557,
    "lat": 52.236388666098,
    "strefa": "Warszawa CPG 1450",
    "id": "A110231_1110231"
  },
  {
    "numer": 1110234,
    "kod": "A110234",
    "adres": "ul. Zielna 39",
    "lon": 21.006640905592,
    "lat": 52.236388666098,
    "strefa": "Warszawa CPG 1450",
    "id": "A110234_1110234"
  },
  {
    "numer": 1110303,
    "kod": "A110303",
    "adres": "ul. Emilii Plater 36",
    "lon": 21.002286862003,
    "lat": 52.234477856755,
    "strefa": "Warszawa CPG 1450",
    "id": "A110303_1110303"
  },
  {
    "numer": 1110304,
    "kod": "A110304",
    "adres": "ul. Wolska / J. Bema",
    "lon": 21.002057058943,
    "lat": 52.234847390693,
    "strefa": "Warszawa CPG 1450",
    "id": "A110304_1110304"
  },
  {
    "numer": 1110305,
    "kod": "A110305",
    "adres": "ul. Emilii Plater",
    "lon": 21.002044940673,
    "lat": 52.234555898928,
    "strefa": "Warszawa CPG 1450",
    "id": "A110305_1110305"
  },
  {
    "numer": 1110306,
    "kod": "A110306",
    "adres": "ul. Siedmiogrodzka 3",
    "lon": 21.001889574484,
    "lat": 52.234137403342,
    "strefa": "Warszawa CPG 1450",
    "id": "A110306_1110306"
  },
  {
    "numer": 1110308,
    "kod": "A110308",
    "adres": "ul. Emilii Plater 55",
    "lon": 21.001548912297,
    "lat": 52.234680894387,
    "strefa": "Warszawa CPG 1450",
    "id": "A110308_1110308"
  },
  {
    "numer": 1110309,
    "kod": "A110309",
    "adres": "ul. Twarda 8-12",
    "lon": 21.000852222774,
    "lat": 52.234782372574,
    "strefa": "Warszawa CPG 1450",
    "id": "A110309_1110309"
  },
  {
    "numer": 1110310,
    "kod": "A110310",
    "adres": "ul. Mariańska",
    "lon": 21.000718251569,
    "lat": 52.233981763382,
    "strefa": "Warszawa CPG 1450",
    "id": "A110310_1110310"
  },
  {
    "numer": 1110311,
    "kod": "A110311",
    "adres": "ul. Tatarska 4",
    "lon": 21.00039904873,
    "lat": 52.234237828876,
    "strefa": "Warszawa CPG 1450",
    "id": "A110311_1110311"
  },
  {
    "numer": 1110312,
    "kod": "A110312",
    "adres": "ul. Twarda 15",
    "lon": 20.998543881409,
    "lat": 52.23407781581,
    "strefa": "Warszawa CPG 1450",
    "id": "A110312_1110312"
  },
  {
    "numer": 1110317,
    "kod": "A110317",
    "adres": "pl. Mirowski",
    "lon": 0.0,
    "lat": 0.0,
    "strefa": "Warszawa CPG 1450",
    "id": "A110317_1110317"
  },
  {
    "numer": 1150101,
    "kod": "A150101",
    "adres": "ul. Elektoralna 10",
    "lon": 20.998952193198,
    "lat": 52.240739942322,
    "strefa": "Warszawa CPG 1450",
    "id": "A150101_1150101"
  },
  {
    "numer": 1150102,
    "kod": "A150102",
    "adres": "ul. Elektoralna 12",
    "lon": 20.997621662545,
    "lat": 52.240299086417,
    "strefa": "Warszawa CPG 1450",
    "id": "A150102_1150102"
  },
  {
    "numer": 1150103,
    "kod": "A150103",
    "adres": "ul. Jaktorowska 5",
    "lon": 20.996917658762,
    "lat": 52.240058706261,
    "strefa": "Warszawa CPG 1450",
    "id": "A150103_1150103"
  },
  {
    "numer": 1150104,
    "kod": "A150104",
    "adres": "al. Jana Pawła II 32",
    "lon": 20.9957376,
    "lat": 52.2399066,
    "strefa": "Warszawa CPG 1450",
    "id": "A150104_1150104"
  },
  {
    "numer": 1150105,
    "kod": "A150105",
    "adres": "ul. Syreny / Rabsztyńska",
    "lon": 20.9953542,
    "lat": 52.240356,
    "strefa": "Warszawa CPG 1450",
    "id": "A150105_1150105"
  },
  {
    "numer": 1150106,
    "kod": "A150106",
    "adres": "al. Jana Pawła II 38",
    "lon": 20.9943235,
    "lat": 52.2415784,
    "strefa": "Warszawa CPG 1450",
    "id": "A150106_1150106"
  },
  {
    "numer": 1150109,
    "kod": "A150109",
    "adres": "al. Solidarności 113",
    "lon": 20.995793717355,
    "lat": 52.242457309493,
    "strefa": "Warszawa CPG 1450",
    "id": "A150109_1150109"
  },
  {
    "numer": 1150110,
    "kod": "A150110",
    "adres": "al. Solidarności 95",
    "lon": 20.997183417915,
    "lat": 52.242919121634,
    "strefa": "Warszawa CPG 1450",
    "id": "A150110_1150110"
  },
  {
    "numer": 1150111,
    "kod": "A150111",
    "adres": "ul. Orla 8",
    "lon": 20.998229635719,
    "lat": 52.242963939872,
    "strefa": "Warszawa CPG 1450",
    "id": "A150111_1150111"
  },
  {
    "numer": 1150112,
    "kod": "A150112",
    "adres": "ul. Wolska 115",
    "lon": 20.998331391459,
    "lat": 52.242557586025,
    "strefa": "Warszawa CPG 1450",
    "id": "A150112_1150112"
  },
  {
    "numer": 1150113,
    "kod": "A150113",
    "adres": "ul. Orla 6",
    "lon": 20.998821038391,
    "lat": 52.242346701797,
    "strefa": "Warszawa CPG 1450",
    "id": "A150113_1150113"
  },
  {
    "numer": 1150115,
    "kod": "A150115",
    "adres": "ul. Orla 5",
    "lon": 20.999189785972,
    "lat": 52.241426440772,
    "strefa": "Warszawa CPG 1450",
    "id": "A150115_1150115"
  },
  {
    "numer": 1150116,
    "kod": "A150116",
    "adres": "ul. Orla 2",
    "lon": 20.999670253469,
    "lat": 52.24103977195,
    "strefa": "Warszawa CPG 1450",
    "id": "A150116_1150116"
  },
  {
    "numer": 1150117,
    "kod": "A150117",
    "adres": "ul. Elektoralna 13",
    "lon": 21.000115055708,
    "lat": 52.241032511461,
    "strefa": "Warszawa CPG 1450",
    "id": "A150117_1150117"
  },
  {
    "numer": 1150118,
    "kod": "A150118",
    "adres": "ul. Okopowa 20",
    "lon": 21.000443666052,
    "lat": 52.241257576834,
    "strefa": "Warszawa CPG 1450",
    "id": "A150118_1150118"
  },
  {
    "numer": 1150119,
    "kod": "A150119",
    "adres": "ul. Elektoralna 2",
    "lon": 21.002006919389,
    "lat": 52.241804727822,
    "strefa": "Warszawa CPG 1450",
    "id": "A150119_1150119"
  },
  {
    "numer": 1150120,
    "kod": "A150120",
    "adres": "pl. Bankowy 1",
    "lon": 21.002758954391,
    "lat": 52.242323125602,
    "strefa": "Warszawa CPG 1450",
    "id": "A150120_1150120"
  },
  {
    "numer": 1150122,
    "kod": "A150122",
    "adres": "pl. Bankowy",
    "lon": 21.002447335859,
    "lat": 52.242643698391,
    "strefa": "Warszawa CPG 1450",
    "id": "A150122_1150122"
  },
  {
    "numer": 1150124,
    "kod": "A150124",
    "adres": "ul. Szwedzka 11",
    "lon": 21.001750051834,
    "lat": 52.243059383425,
    "strefa": "Warszawa CPG 1450",
    "id": "A150124_1150124"
  },
  {
    "numer": 1150125,
    "kod": "A150125",
    "adres": "pl. Bankowy 3-5",
    "lon": 21.001350654432,
    "lat": 52.243561063967,
    "strefa": "Warszawa CPG 1450",
    "id": "A150125_1150125"
  },
  {
    "numer": 1150126,
    "kod": "A150126",
    "adres": "al. Solidarności 83",
    "lon": 20.999816598811,
    "lat": 52.243730921755,
    "strefa": "Warszawa CPG 1450",
    "id": "A150126_1150126"
  },
  {
    "numer": 1150128,
    "kod": "A150128",
    "adres": "ul. Strzelecka 7/9",
    "lon": 20.998721650033,
    "lat": 52.243380337858,
    "strefa": "Warszawa CPG 1450",
    "id": "A150128_1150128"
  },
  {
    "numer": 1150129,
    "kod": "A150129",
    "adres": "al. Solidarności 72",
    "lon": 21.000007046493,
    "lat": 52.244143159772,
    "strefa": "Warszawa CPG 1450",
    "id": "A150129_1150129"
  },
  {
    "numer": 1150130,
    "kod": "A150130",
    "adres": "al. Solidarności 72",
    "lon": 20.999018917645,
    "lat": 52.243830116387,
    "strefa": "Warszawa CPG 1450",
    "id": "A150130_1150130"
  },
  {
    "numer": 1150133,
    "kod": "A150133",
    "adres": "al. Solidarności 78",
    "lon": 20.995902296581,
    "lat": 52.242777145266,
    "strefa": "Warszawa CPG 1450",
    "id": "A150133_1150133"
  },
  {
    "numer": 1150201,
    "kod": "A150201",
    "adres": "ul. Marszałkowska 117",
    "lon": 21.003816513335,
    "lat": 52.241702947609,
    "strefa": "Warszawa CPG 1450",
    "id": "A150201_1150201"
  },
  {
    "numer": 1150202,
    "kod": "A150202",
    "adres": "ul. Marszałkowska 113",
    "lon": 21.003892263411,
    "lat": 52.241012953239,
    "strefa": "Warszawa CPG 1450",
    "id": "A150202_1150202"
  },
  {
    "numer": 1150203,
    "kod": "A150203",
    "adres": "ul. Grenady / Syreny",
    "lon": 21.003051395457,
    "lat": 52.240115556657,
    "strefa": "Warszawa CPG 1450",
    "id": "A150203_1150203"
  },
  {
    "numer": 1150205,
    "kod": "A150205",
    "adres": "ul. Syreny 39",
    "lon": 21.002175186905,
    "lat": 52.240456658543,
    "strefa": "Warszawa CPG 1450",
    "id": "A150205_1150205"
  },
  {
    "numer": 1150206,
    "kod": "A150206",
    "adres": "ul. Przechodnia 2",
    "lon": 21.002478730817,
    "lat": 52.240623592084,
    "strefa": "Warszawa CPG 1450",
    "id": "A150206_1150206"
  },
  {
    "numer": 1150208,
    "kod": "A150208",
    "adres": "ul. Przechodnia 1",
    "lon": 21.002559726063,
    "lat": 52.240989936744,
    "strefa": "Warszawa CPG 1450",
    "id": "A150208_1150208"
  },
  {
    "numer": 1150209,
    "kod": "A150209",
    "adres": "ul. Żytnia / Szlenkierów",
    "lon": 21.002411100418,
    "lat": 52.241451505361,
    "strefa": "Warszawa CPG 1450",
    "id": "A150209_1150209"
  },
  {
    "numer": 1150210,
    "kod": "A150210",
    "adres": "ul. Elektoralna 5",
    "lon": 21.00138989949,
    "lat": 52.241437705819,
    "strefa": "Warszawa CPG 1450",
    "id": "A150210_1150210"
  },
  {
    "numer": 1150211,
    "kod": "A150211",
    "adres": "ul. Stalowa 2",
    "lon": 20.999269670299,
    "lat": 52.240714909705,
    "strefa": "Warszawa CPG 1450",
    "id": "A150211_1150211"
  },
  {
    "numer": 1150212,
    "kod": "A150212",
    "adres": "ul. Stalowa / Środkowa 7",
    "lon": 20.998345024193,
    "lat": 52.240561974807,
    "strefa": "Warszawa CPG 1450",
    "id": "A150212_1150212"
  },
  {
    "numer": 1150213,
    "kod": "A150213",
    "adres": "ul. Elektoralna 21-23",
    "lon": 20.996867867957,
    "lat": 52.239907415922,
    "strefa": "Warszawa CPG 1450",
    "id": "A150213_1150213"
  },
  {
    "numer": 1150215,
    "kod": "A150215",
    "adres": "ul. E. Gibalskiego / H. Barona",
    "lon": 20.99730359029,
    "lat": 52.239235213048,
    "strefa": "Warszawa CPG 1450",
    "id": "A150215_1150215"
  },
  {
    "numer": 1150216,
    "kod": "A150216",
    "adres": "pl. Mirowski 1",
    "lon": 20.998269610883,
    "lat": 52.239392759925,
    "strefa": "Warszawa CPG 1450",
    "id": "A150216_1150216"
  },
  {
    "numer": 1150217,
    "kod": "A150217",
    "adres": "ul. E. Gibalskiego vis-a-vis 19",
    "lon": 20.99920750594,
    "lat": 52.239527731663,
    "strefa": "Warszawa CPG 1450",
    "id": "A150217_1150217"
  },
  {
    "numer": 1150218,
    "kod": "A150218",
    "adres": "pl. Mirowski-Zimna",
    "lon": 21.000001412472,
    "lat": 52.239731704827,
    "strefa": "Warszawa CPG 1450",
    "id": "A150218_1150218"
  },
  {
    "numer": 1150220,
    "kod": "A150220",
    "adres": "ul. Ptasia 2",
    "lon": 21.001474369359,
    "lat": 52.239961482219,
    "strefa": "Warszawa CPG 1450",
    "id": "A150220_1150220"
  },
  {
    "numer": 1150221,
    "kod": "A150221",
    "adres": "ul. Marszałkowska 115",
    "lon": 21.003873035651,
    "lat": 52.240506436265,
    "strefa": "Warszawa CPG 1450",
    "id": "A150221_1150221"
  },
  {
    "numer": 2050111,
    "kod": "B050111",
    "adres": "ul. Mokotowska 31",
    "lon": 21.019015682004,
    "lat": 52.221589446332,
    "strefa": "Warszawa CPG 1450",
    "id": "B050111_2050111"
  },
  {
    "numer": 2050112,
    "kod": "B050112",
    "adres": "ul. Mokotowska 23",
    "lon": 21.018635056548,
    "lat": 52.221007384997,
    "strefa": "Warszawa CPG 1450",
    "id": "B050112_2050112"
  },
  {
    "numer": 2050113,
    "kod": "B050113",
    "adres": "ul. Banderii 2A",
    "lon": 21.018325432671,
    "lat": 52.220592236617,
    "strefa": "Warszawa CPG 1450",
    "id": "B050113_2050113"
  },
  {
    "numer": 2050114,
    "kod": "B050114",
    "adres": "ul. Marszałkowska 34",
    "lon": 21.017539075591,
    "lat": 52.220846311862,
    "strefa": "Warszawa CPG 1450",
    "id": "B050114_2050114"
  },
  {
    "numer": 2050118,
    "kod": "B050118",
    "adres": "ul. Waryńskiego 28",
    "lon": 21.015975436175,
    "lat": 52.220893316148,
    "strefa": "Warszawa CPG 1450",
    "id": "B050118_2050118"
  },
  {
    "numer": 2050119,
    "kod": "B050119",
    "adres": "ul. Waryńskiego 26",
    "lon": 21.01582311404,
    "lat": 52.220414059878,
    "strefa": "Warszawa CPG 1450",
    "id": "B050119_2050119"
  },
  {
    "numer": 2050210,
    "kod": "B050210",
    "adres": "al. Róż 4",
    "lon": 21.023323008871,
    "lat": 52.221917364211,
    "strefa": "Warszawa CPG 1450",
    "id": "B050210_2050210"
  },
  {
    "numer": 2050211,
    "kod": "B050211",
    "adres": "al. Róż 6",
    "lon": 21.022633631089,
    "lat": 52.221847852228,
    "strefa": "Warszawa CPG 1450",
    "id": "B050211_2050211"
  },
  {
    "numer": 2050212,
    "kod": "B050212",
    "adres": "ul. J. Ostroroga vis-a-vis 35A",
    "lon": 21.022058411661,
    "lat": 52.221707169831,
    "strefa": "Warszawa CPG 1450",
    "id": "B050212_2050212"
  },
  {
    "numer": 2050213,
    "kod": "B050213",
    "adres": "al. Róż-Koszykowa",
    "lon": 21.021206748526,
    "lat": 52.221599671161,
    "strefa": "Warszawa CPG 1450",
    "id": "B050213_2050213"
  },
  {
    "numer": 2050214,
    "kod": "B050214",
    "adres": "ul. Koszykowa 3",
    "lon": 21.021334007346,
    "lat": 52.221229673404,
    "strefa": "Warszawa CPG 1450",
    "id": "B050214_2050214"
  },
  {
    "numer": 2050215,
    "kod": "B050215",
    "adres": "ul. Koszykowa 14",
    "lon": 21.021990445082,
    "lat": 52.221131395628,
    "strefa": "Warszawa CPG 1450",
    "id": "B050215_2050215"
  },
  {
    "numer": 2050216,
    "kod": "B050216",
    "adres": "ul. św. Stanisława / Wawrzyszewska",
    "lon": 21.022888839123,
    "lat": 52.221234704516,
    "strefa": "Warszawa CPG 1450",
    "id": "B050216_2050216"
  },
  {
    "numer": 2050217,
    "kod": "B050217",
    "adres": "ul. Kijowska 10/12",
    "lon": 21.022117415339,
    "lat": 52.22093285599,
    "strefa": "Warszawa CPG 1450",
    "id": "B050217_2050217"
  },
  {
    "numer": 2050218,
    "kod": "B050218",
    "adres": "ul. Służewska 2",
    "lon": 21.022141132322,
    "lat": 52.2203671849,
    "strefa": "Warszawa CPG 1450",
    "id": "B050218_2050218"
  },
  {
    "numer": 2050219,
    "kod": "B050219",
    "adres": "ul. Służewska 2 - Koszykowa",
    "lon": 21.022693458254,
    "lat": 52.220693436035,
    "strefa": "Warszawa CPG 1450",
    "id": "B050219_2050219"
  },
  {
    "numer": 2050220,
    "kod": "B050220",
    "adres": "ul. Koszykowa 6",
    "lon": 21.023261089415,
    "lat": 52.220547763072,
    "strefa": "Warszawa CPG 1450",
    "id": "B050220_2050220"
  },
  {
    "numer": 2050221,
    "kod": "B050221",
    "adres": "ul. Koszykowa 1",
    "lon": 21.023278723503,
    "lat": 52.220415800452,
    "strefa": "Warszawa CPG 1450",
    "id": "B050221_2050221"
  },
  {
    "numer": 2050222,
    "kod": "B050222",
    "adres": "pl. Zbawiciela 4",
    "lon": 21.018303470443,
    "lat": 52.220086227243,
    "strefa": "Warszawa CPG 1450",
    "id": "B050222_2050222"
  },
  {
    "numer": 2050223,
    "kod": "B050223",
    "adres": "ul. Wolska 105/107",
    "lon": 21.01925647558,
    "lat": 52.221647991968,
    "strefa": "Warszawa CPG 1450",
    "id": "B050223_2050223"
  },
  {
    "numer": 2050225,
    "kod": "B050225",
    "adres": "ul. Koszykowa - Natolińska",
    "lon": 21.020281005001,
    "lat": 52.221710761729,
    "strefa": "Warszawa CPG 1450",
    "id": "B050225_2050225"
  },
  {
    "numer": 2050226,
    "kod": "B050226",
    "adres": "ul. Natolińska 2",
    "lon": 21.020573552354,
    "lat": 52.221229200005,
    "strefa": "Warszawa CPG 1450",
    "id": "B050226_2050226"
  },
  {
    "numer": 2050227,
    "kod": "B050227",
    "adres": "ul. Natolińska 3",
    "lon": 21.019996538072,
    "lat": 52.220871247279,
    "strefa": "Warszawa CPG 1450",
    "id": "B050227_2050227"
  },
  {
    "numer": 2050228,
    "kod": "B050228",
    "adres": "Al. Ujazdowskie 19",
    "lon": 21.02411866479,
    "lat": 52.222665464672,
    "strefa": "Warszawa CPG 1450",
    "id": "B050228_2050228"
  },
  {
    "numer": 2050301,
    "kod": "B050301",
    "adres": "ul. Nowowiejska 3",
    "lon": 21.016229657715,
    "lat": 52.219842372926,
    "strefa": "Warszawa CPG 1450",
    "id": "B050301_2050301"
  },
  {
    "numer": 2050302,
    "kod": "B050302",
    "adres": "pl. Zbawiciela 3",
    "lon": 21.017629669162,
    "lat": 52.219633984632,
    "strefa": "Warszawa CPG 1450",
    "id": "B050302_2050302"
  },
  {
    "numer": 2050303,
    "kod": "B050303",
    "adres": "ul. Mokotowska 15",
    "lon": 21.017293281792,
    "lat": 52.219200913785,
    "strefa": "Warszawa CPG 1450",
    "id": "B050303_2050303"
  },
  {
    "numer": 2050304,
    "kod": "B050304",
    "adres": "ul. Jaworzyńska 4",
    "lon": 21.01654610573,
    "lat": 52.219102702924,
    "strefa": "Warszawa CPG 1450",
    "id": "B050304_2050304"
  },
  {
    "numer": 2050305,
    "kod": "B050305",
    "adres": "ul. Jaktorowska / Karolkowa",
    "lon": 21.015918867919,
    "lat": 52.218406724465,
    "strefa": "Warszawa CPG 1450",
    "id": "B050305_2050305"
  },
  {
    "numer": 2050306,
    "kod": "B050306",
    "adres": "ul. Mokotowska 9",
    "lon": 21.017013598086,
    "lat": 52.218689668481,
    "strefa": "Warszawa CPG 1450",
    "id": "B050306_2050306"
  },
  {
    "numer": 2050307,
    "kod": "B050307",
    "adres": "ul. Wolska 15",
    "lon": 21.016676565983,
    "lat": 52.218185608518,
    "strefa": "Warszawa CPG 1450",
    "id": "B050307_2050307"
  },
  {
    "numer": 2050308,
    "kod": "B050308",
    "adres": "ul. Mokotowska 4",
    "lon": 21.016962578786,
    "lat": 52.21829662063,
    "strefa": "Warszawa CPG 1450",
    "id": "B050308_2050308"
  },
  {
    "numer": 2050309,
    "kod": "B050309",
    "adres": "ul. Górczewska 22",
    "lon": 21.017405014496,
    "lat": 52.218926818077,
    "strefa": "Warszawa CPG 1450",
    "id": "B050309_2050309"
  },
  {
    "numer": 2050310,
    "kod": "B050310",
    "adres": "ul. Marszałkowska 28",
    "lon": 21.018968752816,
    "lat": 52.218368483722,
    "strefa": "Warszawa CPG 1450",
    "id": "B050310_2050310"
  },
  {
    "numer": 2050311,
    "kod": "B050311",
    "adres": "ul. Waryńskiego Metro",
    "lon": 21.015751366042,
    "lat": 52.219408077826,
    "strefa": "Warszawa CPG 1450",
    "id": "B050311_2050311"
  },
  {
    "numer": 2050312,
    "kod": "B050312",
    "adres": "pl. Zbawiciela 2",
    "lon": 21.01829604509,
    "lat": 52.219620630858,
    "strefa": "Warszawa CPG 1450",
    "id": "B050312_2050312"
  },
  {
    "numer": 2050313,
    "kod": "B050313",
    "adres": "al. Wyzwolenia 15",
    "lon": 21.018968056502,
    "lat": 52.219774845445,
    "strefa": "Warszawa CPG 1450",
    "id": "B050313_2050313"
  },
  {
    "numer": 2050314,
    "kod": "B050314",
    "adres": "ul. Ząbkowska 36",
    "lon": 21.019755224496,
    "lat": 52.219741454432,
    "strefa": "Warszawa CPG 1450",
    "id": "B050314_2050314"
  },
  {
    "numer": 2050315,
    "kod": "B050315",
    "adres": "al. Wyzwolenia 10-12",
    "lon": 21.019810339505,
    "lat": 52.219897909135,
    "strefa": "Warszawa CPG 1450",
    "id": "B050315_2050315"
  },
  {
    "numer": 2050316,
    "kod": "B050316",
    "adres": "al. Wyzwolenia 10",
    "lon": 21.020642512932,
    "lat": 52.219875527693,
    "strefa": "Warszawa CPG 1450",
    "id": "B050316_2050316"
  },
  {
    "numer": 2050317,
    "kod": "B050317",
    "adres": "al. Wyzwolenia 9",
    "lon": 21.020653527704,
    "lat": 52.219707878727,
    "strefa": "Warszawa CPG 1450",
    "id": "B050317_2050317"
  },
  {
    "numer": 2050318,
    "kod": "B050318",
    "adres": "al. Wyzwolenia 9",
    "lon": 21.02143965375,
    "lat": 52.219633202976,
    "strefa": "Warszawa CPG 1450",
    "id": "B050318_2050318"
  },
  {
    "numer": 2050319,
    "kod": "B050319",
    "adres": "al. Wyzwolenia 10",
    "lon": 21.021484833245,
    "lat": 52.219850665422,
    "strefa": "Warszawa CPG 1450",
    "id": "B050319_2050319"
  },
  {
    "numer": 2050320,
    "kod": "B050320",
    "adres": "al. Wyzwolenia 8",
    "lon": 21.022325227597,
    "lat": 52.219864278712,
    "strefa": "Warszawa CPG 1450",
    "id": "B050320_2050320"
  },
  {
    "numer": 2050321,
    "kod": "B050321",
    "adres": "ul. Kijowska 1",
    "lon": 21.022947194885,
    "lat": 52.219802547692,
    "strefa": "Warszawa CPG 1450",
    "id": "B050321_2050321"
  },
  {
    "numer": 2050322,
    "kod": "B050322",
    "adres": "al. Wyzwolenia 3",
    "lon": 21.022932761927,
    "lat": 52.219636035433,
    "strefa": "Warszawa CPG 1450",
    "id": "B050322_2050322"
  },
  {
    "numer": 2050323,
    "kod": "B050323",
    "adres": "ul. Kijowska 18A",
    "lon": 21.022483952568,
    "lat": 52.21962746788,
    "strefa": "Warszawa CPG 1450",
    "id": "B050323_2050323"
  },
  {
    "numer": 2050324,
    "kod": "B050324",
    "adres": "ul. J. Ostroroga / Wawrzyszewska 2",
    "lon": 21.019777168382,
    "lat": 52.21913370364,
    "strefa": "Warszawa CPG 1450",
    "id": "B050324_2050324"
  },
  {
    "numer": 2050325,
    "kod": "B050325",
    "adres": "ul. Sempołowskiej 3",
    "lon": 21.019948005718,
    "lat": 52.218698356929,
    "strefa": "Warszawa CPG 1450",
    "id": "B050325_2050325"
  },
  {
    "numer": 2050326,
    "kod": "B050326",
    "adres": "ul. J. Ostroroga 18",
    "lon": 21.0202959457,
    "lat": 52.21848011307,
    "strefa": "Warszawa CPG 1450",
    "id": "B050326_2050326"
  },
  {
    "numer": 2060101,
    "kod": "B060101",
    "adres": "ul. Smolna 40",
    "lon": 21.021375157309,
    "lat": 52.232399805984,
    "strefa": "Warszawa CPG 1450",
    "id": "B060101_2060101"
  },
  {
    "numer": 2060102,
    "kod": "B060102",
    "adres": "ul. Smolna 36",
    "lon": 21.022053984308,
    "lat": 52.232565742409,
    "strefa": "Warszawa CPG 1450",
    "id": "B060102_2060102"
  },
  {
    "numer": 2060105,
    "kod": "B060105",
    "adres": "ul. Smolna 30",
    "lon": 21.023066697099,
    "lat": 52.232888577284,
    "strefa": "Warszawa CPG 1450",
    "id": "B060105_2060105"
  },
  {
    "numer": 2060106,
    "kod": "B060106",
    "adres": "ul. Smolna 30",
    "lon": 21.023609712827,
    "lat": 52.233240041067,
    "strefa": "Warszawa CPG 1450",
    "id": "B060106_2060106"
  },
  {
    "numer": 2060107,
    "kod": "B060107",
    "adres": "ul. Brzeska 24",
    "lon": 21.023524545135,
    "lat": 52.233620059359,
    "strefa": "Warszawa CPG 1450",
    "id": "B060107_2060107"
  },
  {
    "numer": 2060108,
    "kod": "B060108",
    "adres": "ul. Smolna 9",
    "lon": 21.024709473807,
    "lat": 52.233133629747,
    "strefa": "Warszawa CPG 1450",
    "id": "B060108_2060108"
  },
  {
    "numer": 2060109,
    "kod": "B060109",
    "adres": "ul. Smolna 8",
    "lon": 21.025321,
    "lat": 52.2332663,
    "strefa": "Warszawa CPG 1450",
    "id": "B060109_2060109"
  },
  {
    "numer": 2060111,
    "kod": "B060111",
    "adres": "Al. Jerozolimskie (parking Dw. Powiśle)",
    "lon": 21.02586,
    "lat": 52.2331951,
    "strefa": "Warszawa CPG 1450",
    "id": "B060111_2060111"
  },
  {
    "numer": 2060112,
    "kod": "B060112",
    "adres": "Al. Jerozolimskie - Smolna",
    "lon": 21.025612866452,
    "lat": 52.233025888949,
    "strefa": "Warszawa CPG 1450",
    "id": "B060112_2060112"
  },
  {
    "numer": 2060113,
    "kod": "B060113",
    "adres": "Al. Jerozolimskie 2",
    "lon": 21.0246703,
    "lat": 52.2327912,
    "strefa": "Warszawa CPG 1450",
    "id": "B060113_2060113"
  },
  {
    "numer": 2060114,
    "kod": "B060114",
    "adres": "Al. Jerozolimskie 6",
    "lon": 21.0237738,
    "lat": 52.2325781,
    "strefa": "Warszawa CPG 1450",
    "id": "B060114_2060114"
  },
  {
    "numer": 2060115,
    "kod": "B060115",
    "adres": "Al. Jerozolimskie 8",
    "lon": 21.023222,
    "lat": 52.232635,
    "strefa": "Warszawa CPG 1450",
    "id": "B060115_2060115"
  },
  {
    "numer": 2060116,
    "kod": "B060116",
    "adres": "Al. Jerozolimskie (skwer)",
    "lon": 21.021733,
    "lat": 52.2322076,
    "strefa": "Warszawa CPG 1450",
    "id": "B060116_2060116"
  },
  {
    "numer": 2060201,
    "kod": "B060201",
    "adres": "ul. Ordynacka 14",
    "lon": 21.019009665012,
    "lat": 52.235800968601,
    "strefa": "Warszawa CPG 1450",
    "id": "B060201_2060201"
  },
  {
    "numer": 2060202,
    "kod": "B060202",
    "adres": "ul. Ordynacka 11",
    "lon": 21.019848581108,
    "lat": 52.235832870414,
    "strefa": "Warszawa CPG 1450",
    "id": "B060202_2060202"
  },
  {
    "numer": 2060203,
    "kod": "B060203",
    "adres": "ul. Stalowa vis-a-vis 44",
    "lon": 21.020638595769,
    "lat": 52.2360403546,
    "strefa": "Warszawa CPG 1450",
    "id": "B060203_2060203"
  },
  {
    "numer": 2060206,
    "kod": "B060206",
    "adres": "ul. Okólnik 11a",
    "lon": 21.021494368186,
    "lat": 52.236014280612,
    "strefa": "Warszawa CPG 1450",
    "id": "B060206_2060206"
  },
  {
    "numer": 2060207,
    "kod": "B060207",
    "adres": "ul. Wileńska 31 / Konopacka",
    "lon": 21.0218795847,
    "lat": 52.235769006946,
    "strefa": "Warszawa CPG 1450",
    "id": "B060207_2060207"
  },
  {
    "numer": 2060208,
    "kod": "B060208",
    "adres": "ul. Okólnik 9a",
    "lon": 21.0217702041,
    "lat": 52.235433891657,
    "strefa": "Warszawa CPG 1450",
    "id": "B060208_2060208"
  },
  {
    "numer": 2060209,
    "kod": "B060209",
    "adres": "ul. Okólnik 2",
    "lon": 21.022175552828,
    "lat": 52.235383259193,
    "strefa": "Warszawa CPG 1450",
    "id": "B060209_2060209"
  },
  {
    "numer": 2060210,
    "kod": "B060210",
    "adres": "ul. Wileńska 63",
    "lon": 21.022163335035,
    "lat": 52.235065461805,
    "strefa": "Warszawa CPG 1450",
    "id": "B060210_2060210"
  },
  {
    "numer": 2060211,
    "kod": "B060211",
    "adres": "ul. Wileńska / Środkowa 2/4",
    "lon": 21.021476660193,
    "lat": 52.234624275553,
    "strefa": "Warszawa CPG 1450",
    "id": "B060211_2060211"
  },
  {
    "numer": 2060212,
    "kod": "B060212",
    "adres": "ul. Krywulta 1",
    "lon": 21.022152061068,
    "lat": 52.234359722745,
    "strefa": "Warszawa CPG 1450",
    "id": "B060212_2060212"
  },
  {
    "numer": 2060213,
    "kod": "B060213",
    "adres": "ul. Foksal 8",
    "lon": 21.022737318383,
    "lat": 52.234255968344,
    "strefa": "Warszawa CPG 1450",
    "id": "B060213_2060213"
  },
  {
    "numer": 2060215,
    "kod": "B060215",
    "adres": "ul. Foksal 11",
    "lon": 21.021923246592,
    "lat": 52.233923746693,
    "strefa": "Warszawa CPG 1450",
    "id": "B060215_2060215"
  },
  {
    "numer": 2060216,
    "kod": "B060216",
    "adres": "ul. Foksal 12",
    "lon": 21.022113808109,
    "lat": 52.234085037079,
    "strefa": "Warszawa CPG 1450",
    "id": "B060216_2060216"
  },
  {
    "numer": 2060217,
    "kod": "B060217",
    "adres": "ul. Foksal 12",
    "lon": 21.021507179495,
    "lat": 52.233956440033,
    "strefa": "Warszawa CPG 1450",
    "id": "B060217_2060217"
  },
  {
    "numer": 2060218,
    "kod": "B060218",
    "adres": "ul. Foksal 16",
    "lon": 21.020452769164,
    "lat": 52.233656386348,
    "strefa": "Warszawa CPG 1450",
    "id": "B060218_2060218"
  },
  {
    "numer": 2060219,
    "kod": "B060219",
    "adres": "ul. Mała 8",
    "lon": 21.020629015732,
    "lat": 52.233636060088,
    "strefa": "Warszawa CPG 1450",
    "id": "B060219_2060219"
  },
  {
    "numer": 2060221,
    "kod": "B060221",
    "adres": "ul. Gałczyńskiego/Przybosia",
    "lon": 21.020064324961,
    "lat": 52.234194662106,
    "strefa": "Warszawa CPG 1450",
    "id": "B060221_2060221"
  },
  {
    "numer": 2060222,
    "kod": "B060222",
    "adres": "ul. Przybosia",
    "lon": 21.020562189133,
    "lat": 52.234237211106,
    "strefa": "Warszawa CPG 1450",
    "id": "B060222_2060222"
  },
  {
    "numer": 2060223,
    "kod": "B060223",
    "adres": "ul. Szczygla 8",
    "lon": 21.021695302835,
    "lat": 52.23487904621,
    "strefa": "Warszawa CPG 1450",
    "id": "B060223_2060223"
  },
  {
    "numer": 2060224,
    "kod": "B060224",
    "adres": "ul. Gałczyńskiego 12",
    "lon": 21.019681668571,
    "lat": 52.234963559438,
    "strefa": "Warszawa CPG 1450",
    "id": "B060224_2060224"
  },
  {
    "numer": 2060226,
    "kod": "B060226",
    "adres": "ul. Kopernika 8",
    "lon": 21.020966786334,
    "lat": 52.234978721252,
    "strefa": "Warszawa CPG 1450",
    "id": "B060226_2060226"
  },
  {
    "numer": 2060227,
    "kod": "B060227",
    "adres": "ul. Kopernika - Ordynacka",
    "lon": 21.020641135041,
    "lat": 52.235686242462,
    "strefa": "Warszawa CPG 1450",
    "id": "B060227_2060227"
  },
  {
    "numer": 2060302,
    "kod": "B060302",
    "adres": "ul. Świętokrzyska 3",
    "lon": 21.018558147872,
    "lat": 52.237029266248,
    "strefa": "Warszawa CPG 1450",
    "id": "B060302_2060302"
  },
  {
    "numer": 2060306,
    "kod": "B060306",
    "adres": "ul. Kopernika 32",
    "lon": 21.020443601254,
    "lat": 52.237332646815,
    "strefa": "Warszawa CPG 1450",
    "id": "B060306_2060306"
  },
  {
    "numer": 2060307,
    "kod": "B060307",
    "adres": "ul. Konopczyńskiego 4",
    "lon": 21.02101666181,
    "lat": 52.236856148954,
    "strefa": "Warszawa CPG 1450",
    "id": "B060307_2060307"
  },
  {
    "numer": 2060308,
    "kod": "B060308",
    "adres": "ul. Stalowa 28 / Czynszowa",
    "lon": 21.021789095328,
    "lat": 52.237312811222,
    "strefa": "Warszawa CPG 1450",
    "id": "B060308_2060308"
  },
  {
    "numer": 2060309,
    "kod": "B060309",
    "adres": "ul. Bartoszewicza 11",
    "lon": 21.020508570304,
    "lat": 52.237811280369,
    "strefa": "Warszawa CPG 1450",
    "id": "B060309_2060309"
  },
  {
    "numer": 2060310,
    "kod": "B060310",
    "adres": "ul. Stalowa 11",
    "lon": 21.020707182035,
    "lat": 52.237952797105,
    "strefa": "Warszawa CPG 1450",
    "id": "B060310_2060310"
  },
  {
    "numer": 2060311,
    "kod": "B060311",
    "adres": "ul. Ratuszowa 5",
    "lon": 21.021170190157,
    "lat": 52.237767250562,
    "strefa": "Warszawa CPG 1450",
    "id": "B060311_2060311"
  },
  {
    "numer": 2060312,
    "kod": "B060312",
    "adres": "ul. Bartoszewicza 3",
    "lon": 21.022075457648,
    "lat": 52.237731149062,
    "strefa": "Warszawa CPG 1450",
    "id": "B060312_2060312"
  },
  {
    "numer": 2060313,
    "kod": "B060313",
    "adres": "ul. Ząbkowska vis-a-vis 30",
    "lon": 21.023335646577,
    "lat": 52.237268642917,
    "strefa": "Warszawa CPG 1450",
    "id": "B060313_2060313"
  },
  {
    "numer": 2060314,
    "kod": "B060314",
    "adres": "ul. Bartoszewicza 1b",
    "lon": 21.022939380034,
    "lat": 52.23757718597,
    "strefa": "Warszawa CPG 1450",
    "id": "B060314_2060314"
  },
  {
    "numer": 2060315,
    "kod": "B060315",
    "adres": "ul. Bartoszewicza - Sewerynów",
    "lon": 21.022278939928,
    "lat": 52.237909881537,
    "strefa": "Warszawa CPG 1450",
    "id": "B060315_2060315"
  },
  {
    "numer": 2060316,
    "kod": "B060316",
    "adres": "ul. Sewerynów 4",
    "lon": 21.02120706134,
    "lat": 52.238185418278,
    "strefa": "Warszawa CPG 1450",
    "id": "B060316_2060316"
  },
  {
    "numer": 2060318,
    "kod": "B060318",
    "adres": "ul. Sewerynów 7",
    "lon": 21.020610294558,
    "lat": 52.238992695836,
    "strefa": "Warszawa CPG 1450",
    "id": "B060318_2060318"
  },
  {
    "numer": 2060319,
    "kod": "B060319",
    "adres": "ul. Oboźna 8",
    "lon": 21.019775481591,
    "lat": 52.239139785904,
    "strefa": "Warszawa CPG 1450",
    "id": "B060319_2060319"
  },
  {
    "numer": 2060320,
    "kod": "B060320",
    "adres": "ul. Karasia (GTP)",
    "lon": 21.019382449093,
    "lat": 52.238612470964,
    "strefa": "Warszawa CPG 1450",
    "id": "B060320_2060320"
  },
  {
    "numer": 2060321,
    "kod": "B060321",
    "adres": "ul. Karasia (BIG)",
    "lon": 21.019913084188,
    "lat": 52.237915961964,
    "strefa": "Warszawa CPG 1450",
    "id": "B060321_2060321"
  },
  {
    "numer": 2060322,
    "kod": "B060322",
    "adres": "ul. Kopernika 43",
    "lon": 21.019021419026,
    "lat": 52.238038614403,
    "strefa": "Warszawa CPG 1450",
    "id": "B060322_2060322"
  },
  {
    "numer": 2060325,
    "kod": "B060325",
    "adres": "pl. Osterwy 1",
    "lon": 21.01863865822,
    "lat": 52.238425041968,
    "strefa": "Warszawa CPG 1450",
    "id": "B060325_2060325"
  },
  {
    "numer": 2060329,
    "kod": "B060329",
    "adres": "ul. Karowa (Bristol)",
    "lon": 21.016352450862,
    "lat": 52.242062187681,
    "strefa": "Warszawa CPG 1450",
    "id": "B060329_2060329"
  },
  {
    "numer": 2060330,
    "kod": "B060330",
    "adres": "ul. Karowa 20",
    "lon": 21.016837252788,
    "lat": 52.242231881131,
    "strefa": "Warszawa CPG 1450",
    "id": "B060330_2060330"
  },
  {
    "numer": 2060331,
    "kod": "B060331",
    "adres": "ul. Karowa 31",
    "lon": 21.01790143935,
    "lat": 52.242626817836,
    "strefa": "Warszawa CPG 1450",
    "id": "B060331_2060331"
  },
  {
    "numer": 2060332,
    "kod": "B060332",
    "adres": "ul. Karowa 18",
    "lon": 21.017559756031,
    "lat": 52.242647850728,
    "strefa": "Warszawa CPG 1450",
    "id": "B060332_2060332"
  },
  {
    "numer": 2060334,
    "kod": "B060334",
    "adres": "ul. Krakowskie Przedmieście 62",
    "lon": 21.014603269166,
    "lat": 52.244915709224,
    "strefa": "Warszawa CPG 1450",
    "id": "B060334_2060334"
  },
  {
    "numer": 2060335,
    "kod": "B060335",
    "adres": "ul. Krak. Przedmieście Pomnik",
    "lon": 21.014882670046,
    "lat": 52.243380350023,
    "strefa": "Warszawa CPG 1450",
    "id": "B060335_2060335"
  },
  {
    "numer": 2080102,
    "kod": "B080102",
    "adres": "ul. Piękna 2-8",
    "lon": 21.02545912144,
    "lat": 52.223987368392,
    "strefa": "Warszawa CPG 1450",
    "id": "B080102_2080102"
  },
  {
    "numer": 2080103,
    "kod": "B080103",
    "adres": "ul. Piękna 1",
    "lon": 21.026873471912,
    "lat": 52.22421282663,
    "strefa": "Warszawa CPG 1450",
    "id": "B080103_2080103"
  },
  {
    "numer": 2080104,
    "kod": "B080104",
    "adres": "ul. Jazdów",
    "lon": 21.028070346752,
    "lat": 52.223877656542,
    "strefa": "Warszawa CPG 1450",
    "id": "B080104_2080104"
  },
  {
    "numer": 2080105,
    "kod": "B080105",
    "adres": "ul. Górnośląska 24",
    "lon": 21.029232105973,
    "lat": 52.224380893001,
    "strefa": "Warszawa CPG 1450",
    "id": "B080105_2080105"
  },
  {
    "numer": 2080107,
    "kod": "B080107",
    "adres": "ul. Matejki 4",
    "lon": 21.02577355907,
    "lat": 52.224856535627,
    "strefa": "Warszawa CPG 1450",
    "id": "B080107_2080107"
  },
  {
    "numer": 2080108,
    "kod": "B080108",
    "adres": "ul. Matejki 4",
    "lon": 21.024441789613,
    "lat": 52.224766363192,
    "strefa": "Warszawa CPG 1450",
    "id": "B080108_2080108"
  },
  {
    "numer": 2080112,
    "kod": "B080112",
    "adres": "ul. Nowy Świat 6/12 / Lorentza",
    "lon": 21.021709126998,
    "lat": 52.230616387005,
    "strefa": "Warszawa CPG 1450",
    "id": "B080112_2080112"
  },
  {
    "numer": 2080113,
    "kod": "B080113",
    "adres": "ul. Nowy Świat 6/12",
    "lon": 21.021448841469,
    "lat": 52.230919857267,
    "strefa": "Warszawa CPG 1450",
    "id": "B080113_2080113"
  },
  {
    "numer": 2080114,
    "kod": "B080114",
    "adres": "ul. Nowy Świat 6/12 / Aleje Jerozolimskie",
    "lon": 21.021254079174,
    "lat": 52.23142340365,
    "strefa": "Warszawa CPG 1450",
    "id": "B080114_2080114"
  },
  {
    "numer": 2080115,
    "kod": "B080115",
    "adres": "Al. Jerozolimskie",
    "lon": 21.021948070985,
    "lat": 52.231817795663,
    "strefa": "Warszawa CPG 1450",
    "id": "B080115_2080115"
  },
  {
    "numer": 2080117,
    "kod": "B080117",
    "adres": "ul. Inżynierska 3",
    "lon": 21.0226446,
    "lat": 52.2319723,
    "strefa": "Warszawa CPG 1450",
    "id": "B080117_2080117"
  },
  {
    "numer": 2080118,
    "kod": "B080118",
    "adres": "Al. Jerozolimskie",
    "lon": 21.024868109776,
    "lat": 52.232467038497,
    "strefa": "Warszawa CPG 1450",
    "id": "B080118_2080118"
  },
  {
    "numer": 2080119,
    "kod": "B080119",
    "adres": "ul. Jazdów",
    "lon": 21.0289532,
    "lat": 52.2213061,
    "strefa": "Warszawa CPG 1450",
    "id": "B080119_2080119"
  },
  {
    "numer": 2080201,
    "kod": "B080201",
    "adres": "ul. Konopnickiej 3",
    "lon": 21.02616064711,
    "lat": 52.227074374637,
    "strefa": "Warszawa CPG 1450",
    "id": "B080201_2080201"
  },
  {
    "numer": 2080202,
    "kod": "B080202",
    "adres": "ul. Frascati 6",
    "lon": 21.026686027311,
    "lat": 52.227113534203,
    "strefa": "Warszawa CPG 1450",
    "id": "B080202_2080202"
  },
  {
    "numer": 2080204,
    "kod": "B080204",
    "adres": "al. Na skarpie 17",
    "lon": 21.028693383834,
    "lat": 52.227352817915,
    "strefa": "Warszawa CPG 1450",
    "id": "B080204_2080204"
  },
  {
    "numer": 2080205,
    "kod": "B080205",
    "adres": "al. Na skarpie 21",
    "lon": 21.028518247982,
    "lat": 52.227778352727,
    "strefa": "Warszawa CPG 1450",
    "id": "B080205_2080205"
  },
  {
    "numer": 2080206,
    "kod": "B080206",
    "adres": "al. Na skarpie 20-26",
    "lon": 21.02835138857,
    "lat": 52.228538511246,
    "strefa": "Warszawa CPG 1450",
    "id": "B080206_2080206"
  },
  {
    "numer": 2080208,
    "kod": "B080208",
    "adres": "ul. Prusa (teatr)",
    "lon": 21.026728925328,
    "lat": 52.227988841853,
    "strefa": "Warszawa CPG 1450",
    "id": "B080208_2080208"
  },
  {
    "numer": 2080209,
    "kod": "B080209",
    "adres": "ul. Prusa (park)",
    "lon": 21.026769145445,
    "lat": 52.227773354054,
    "strefa": "Warszawa CPG 1450",
    "id": "B080209_2080209"
  },
  {
    "numer": 2080210,
    "kod": "B080210",
    "adres": "ul. Konopnickiej 6",
    "lon": 21.025903586765,
    "lat": 52.22796326241,
    "strefa": "Warszawa CPG 1450",
    "id": "B080210_2080210"
  },
  {
    "numer": 2080211,
    "kod": "B080211",
    "adres": "ul. Kijowska 20 (wyjazd)",
    "lon": 21.025939815705,
    "lat": 52.227666382158,
    "strefa": "Warszawa CPG 1450",
    "id": "B080211_2080211"
  },
  {
    "numer": 2080212,
    "kod": "B080212",
    "adres": "ul. Prusa (Hotel)",
    "lon": 21.025382467022,
    "lat": 52.227790182962,
    "strefa": "Warszawa CPG 1450",
    "id": "B080212_2080212"
  },
  {
    "numer": 2080213,
    "kod": "B080213",
    "adres": "ul. Prusa -Wiejska 20",
    "lon": 21.024520998363,
    "lat": 52.227580355646,
    "strefa": "Warszawa CPG 1450",
    "id": "B080213_2080213"
  },
  {
    "numer": 2080214,
    "kod": "B080214",
    "adres": "ul. Jagiellońska vis-a-vis 44-46",
    "lon": 21.024655446562,
    "lat": 52.2272467246,
    "strefa": "Warszawa CPG 1450",
    "id": "B080214_2080214"
  },
  {
    "numer": 2080215,
    "kod": "B080215",
    "adres": "ul. Wiejska 21",
    "lon": 21.02420020383,
    "lat": 52.22740697301,
    "strefa": "Warszawa CPG 1450",
    "id": "B080215_2080215"
  },
  {
    "numer": 2080216,
    "kod": "B080216",
    "adres": "ul. S. Starzyńskiego / ZOO 2",
    "lon": 21.025105686042,
    "lat": 52.226781055482,
    "strefa": "Warszawa CPG 1450",
    "id": "B080216_2080216"
  },
  {
    "numer": 2080217,
    "kod": "B080217",
    "adres": "ul. Wiejska 17",
    "lon": 21.024706012567,
    "lat": 52.226882925927,
    "strefa": "Warszawa CPG 1450",
    "id": "B080217_2080217"
  },
  {
    "numer": 2080219,
    "kod": "B080219",
    "adres": "ul. Wiejska 11",
    "lon": 21.025318674372,
    "lat": 52.226266219118,
    "strefa": "Warszawa CPG 1450",
    "id": "B080219_2080219"
  },
  {
    "numer": 2080220,
    "kod": "B080220",
    "adres": "ul. Frascati 1",
    "lon": 21.026057513658,
    "lat": 52.226630613923,
    "strefa": "Warszawa CPG 1450",
    "id": "B080220_2080220"
  },
  {
    "numer": 2090101,
    "kod": "B090101",
    "adres": "al. Solidarności 68a",
    "lon": 21.002673355058,
    "lat": 52.245158842526,
    "strefa": "Warszawa CPG 1450",
    "id": "B090101_2090101"
  },
  {
    "numer": 2090102,
    "kod": "B090102",
    "adres": "ul. Bielańska - Solidarności",
    "lon": 21.002749505136,
    "lat": 52.24545770244,
    "strefa": "Warszawa CPG 1450",
    "id": "B090102_2090102"
  },
  {
    "numer": 2090104,
    "kod": "B090104",
    "adres": "ul. Długa (metro)",
    "lon": 21.00169862884,
    "lat": 52.24535598052,
    "strefa": "Warszawa CPG 1450",
    "id": "B090104_2090104"
  },
  {
    "numer": 2090106,
    "kod": "B090106",
    "adres": "ul. Stare Nalewki 4",
    "lon": 21.001802868086,
    "lat": 52.246106631039,
    "strefa": "Warszawa CPG 1450",
    "id": "B090106_2090106"
  },
  {
    "numer": 2090107,
    "kod": "B090107",
    "adres": "ul. Długa (Bielańska)",
    "lon": 21.002905644837,
    "lat": 52.245768579181,
    "strefa": "Warszawa CPG 1450",
    "id": "B090107_2090107"
  },
  {
    "numer": 2090108,
    "kod": "B090108",
    "adres": "ul. Długa 44-50",
    "lon": 21.003147289284,
    "lat": 52.246035701216,
    "strefa": "Warszawa CPG 1450",
    "id": "B090108_2090108"
  },
  {
    "numer": 2090109,
    "kod": "B090109",
    "adres": "ul. Karolkowa 22/24",
    "lon": 21.003693571736,
    "lat": 52.246096394223,
    "strefa": "Warszawa CPG 1450",
    "id": "B090109_2090109"
  },
  {
    "numer": 2090110,
    "kod": "B090110",
    "adres": "ul. Długa 50",
    "lon": 21.003712255538,
    "lat": 52.246318556368,
    "strefa": "Warszawa CPG 1450",
    "id": "B090110_2090110"
  },
  {
    "numer": 2090112,
    "kod": "B090112",
    "adres": "ul. I. Prądzyńskiego 1/3",
    "lon": 21.004945478605,
    "lat": 52.24755928821,
    "strefa": "Warszawa CPG 1450",
    "id": "B090112_2090112"
  },
  {
    "numer": 2090114,
    "kod": "B090114",
    "adres": "ul. Długa 24",
    "lon": 21.005662036095,
    "lat": 52.248322656672,
    "strefa": "Warszawa CPG 1450",
    "id": "B090114_2090114"
  },
  {
    "numer": 2090115,
    "kod": "B090115",
    "adres": "ul. Miodowa 23",
    "lon": 21.006600658572,
    "lat": 52.248422722737,
    "strefa": "Warszawa CPG 1450",
    "id": "B090115_2090115"
  },
  {
    "numer": 2090116,
    "kod": "B090116",
    "adres": "ul. Miodowa 21",
    "lon": 21.007995251555,
    "lat": 52.247848445248,
    "strefa": "Warszawa CPG 1450",
    "id": "B090116_2090116"
  },
  {
    "numer": 2090117,
    "kod": "B090117",
    "adres": "ul. Schillera 4",
    "lon": 21.006683440312,
    "lat": 52.247712459046,
    "strefa": "Warszawa CPG 1450",
    "id": "B090117_2090117"
  },
  {
    "numer": 2090120,
    "kod": "B090120",
    "adres": "al. Solidarności - Schillera",
    "lon": 21.006748991469,
    "lat": 52.246162444281,
    "strefa": "Warszawa CPG 1450",
    "id": "B090120_2090120"
  },
  {
    "numer": 2090121,
    "kod": "B090121",
    "adres": "ul. 11 Listopada 15",
    "lon": 21.006139710373,
    "lat": 52.246093161176,
    "strefa": "Warszawa CPG 1450",
    "id": "B090121_2090121"
  },
  {
    "numer": 2090122,
    "kod": "B090122",
    "adres": "al. Solidarności 60a",
    "lon": 21.004760993132,
    "lat": 52.24593560196,
    "strefa": "Warszawa CPG 1450",
    "id": "B090122_2090122"
  },
  {
    "numer": 2090123,
    "kod": "B090123",
    "adres": "ul. Działdowska 12",
    "lon": 21.003805101363,
    "lat": 52.245583495201,
    "strefa": "Warszawa CPG 1450",
    "id": "B090123_2090123"
  },
  {
    "numer": 2090125,
    "kod": "B090125",
    "adres": "ul. Kolejowa 37/39",
    "lon": 21.006489758266,
    "lat": 52.248897261702,
    "strefa": "Warszawa CPG 1450",
    "id": "B090125_2090125"
  },
  {
    "numer": 2090126,
    "kod": "B090126",
    "adres": "ul. Długa 19",
    "lon": 21.005536775428,
    "lat": 52.247981400147,
    "strefa": "Warszawa CPG 1450",
    "id": "B090126_2090126"
  },
  {
    "numer": 2090227,
    "kod": "B090227",
    "adres": "ul. Miodowa 20",
    "lon": 21.007992803086,
    "lat": 52.248025413366,
    "strefa": "Warszawa CPG 1450",
    "id": "B090227_2090227"
  },
  {
    "numer": 2090228,
    "kod": "B090228",
    "adres": "ul. Długa/Miodowa 26",
    "lon": 0.0,
    "lat": 0.0,
    "strefa": "Warszawa CPG 1450",
    "id": "B090228_2090228"
  },
  {
    "numer": 2140101,
    "kod": "B140101",
    "adres": "ul. Nowogrodzka 62b",
    "lon": 21.001576893456,
    "lat": 52.226573707097,
    "strefa": "Warszawa CPG 1450",
    "id": "B140101_2140101"
  },
  {
    "numer": 2140102,
    "kod": "B140102",
    "adres": "ul. Nowogrodzka 59",
    "lon": 21.001729123387,
    "lat": 52.226454227037,
    "strefa": "Warszawa CPG 1450",
    "id": "B140102_2140102"
  },
  {
    "numer": 2140103,
    "kod": "B140103",
    "adres": "ul. Nowogrodzka v-vis 64",
    "lon": 21.0000857,
    "lat": 52.2261028,
    "strefa": "Warszawa CPG 1450",
    "id": "B140103_2140103"
  },
  {
    "numer": 2140104,
    "kod": "B140104",
    "adres": "ul. Nowogrodzka 64",
    "lon": 21.000413592764,
    "lat": 52.226264457699,
    "strefa": "Warszawa CPG 1450",
    "id": "B140104_2140104"
  },
  {
    "numer": 2140107,
    "kod": "B140107",
    "adres": "ul. Nowogrodzka v-vis 66",
    "lon": 20.998698085822,
    "lat": 52.22573434935,
    "strefa": "Warszawa CPG 1450",
    "id": "B140107_2140107"
  },
  {
    "numer": 2140108,
    "kod": "B140108",
    "adres": "ul. Nowogrodzka 68",
    "lon": 20.998119226584,
    "lat": 52.225763009791,
    "strefa": "Warszawa CPG 1450",
    "id": "B140108_2140108"
  },
  {
    "numer": 2140109,
    "kod": "B140109",
    "adres": "ul. Nowogrodzka v-vis 68",
    "lon": 20.997519784893,
    "lat": 52.225476494681,
    "strefa": "Warszawa CPG 1450",
    "id": "B140109_2140109"
  },
  {
    "numer": 2140110,
    "kod": "B140110",
    "adres": "ul. Nowogrodzka - Lindleya",
    "lon": 20.996822369071,
    "lat": 52.225454086267,
    "strefa": "Warszawa CPG 1450",
    "id": "B140110_2140110"
  },
  {
    "numer": 2140111,
    "kod": "B140111",
    "adres": "pl. Starynkiewicza 5",
    "lon": 20.995803497504,
    "lat": 52.225084655461,
    "strefa": "Warszawa CPG 1450",
    "id": "B140111_2140111"
  },
  {
    "numer": 2140113,
    "kod": "B140113",
    "adres": "pl. Starynkiewicza 7",
    "lon": 20.995646410918,
    "lat": 52.225807400419,
    "strefa": "Warszawa CPG 1450",
    "id": "B140113_2140113"
  },
  {
    "numer": 2140114,
    "kod": "B140114",
    "adres": "ul. Lindleya 16",
    "lon": 20.996274029582,
    "lat": 52.225915154606,
    "strefa": "Warszawa CPG 1450",
    "id": "B140114_2140114"
  },
  {
    "numer": 2140115,
    "kod": "B140115",
    "adres": "Al. Jerozolimskie 101",
    "lon": 20.996679639301,
    "lat": 52.226428473673,
    "strefa": "Warszawa CPG 1450",
    "id": "B140115_2140115"
  },
  {
    "numer": 2140116,
    "kod": "B140116",
    "adres": "Al. Jerozolimskie 97",
    "lon": 20.99783857023,
    "lat": 52.226697845965,
    "strefa": "Warszawa CPG 1450",
    "id": "B140116_2140116"
  },
  {
    "numer": 2140117,
    "kod": "B140117",
    "adres": "Al. Jerozolimskie 91",
    "lon": 20.998961726329,
    "lat": 52.226931194559,
    "strefa": "Warszawa CPG 1450",
    "id": "B140117_2140117"
  },
  {
    "numer": 2140118,
    "kod": "B140118",
    "adres": "Al. Jerozolimskie 87",
    "lon": 20.999981030738,
    "lat": 52.227160595998,
    "strefa": "Warszawa CPG 1450",
    "id": "B140118_2140118"
  },
  {
    "numer": 2140203,
    "kod": "B140203",
    "adres": "ul. Koszykowa 79a",
    "lon": 21.003085378033,
    "lat": 52.223025622923,
    "strefa": "Warszawa CPG 1450",
    "id": "B140203_2140203"
  },
  {
    "numer": 2140204,
    "kod": "B140204",
    "adres": "ul. Karolkowa 50 / Wolska",
    "lon": 21.00137074412,
    "lat": 52.223108254794,
    "strefa": "Warszawa CPG 1450",
    "id": "B140204_2140204"
  },
  {
    "numer": 2140205,
    "kod": "B140205",
    "adres": "pl. Starynkiewicza 1",
    "lon": 20.995665701514,
    "lat": 52.224004441347,
    "strefa": "Warszawa CPG 1450",
    "id": "B140205_2140205"
  },
  {
    "numer": 2140206,
    "kod": "B140206",
    "adres": "pl. Starynkiewicza 1",
    "lon": 20.995382807255,
    "lat": 52.224314082662,
    "strefa": "Warszawa CPG 1450",
    "id": "B140206_2140206"
  },
  {
    "numer": 2140207,
    "kod": "B140207",
    "adres": "ul. Lindleya vis/vis 4",
    "lon": 20.996795661085,
    "lat": 52.224777215054,
    "strefa": "Warszawa CPG 1450",
    "id": "B140207_2140207"
  },
  {
    "numer": 2140208,
    "kod": "B140208",
    "adres": "ul. Lindleya 4",
    "lon": 20.99703381697,
    "lat": 52.224731920751,
    "strefa": "Warszawa CPG 1450",
    "id": "B140208_2140208"
  },
  {
    "numer": 2140210,
    "kod": "B140210",
    "adres": "ul. Przyokopowa vis-a-vis 33",
    "lon": 20.997227663485,
    "lat": 52.224054788453,
    "strefa": "Warszawa CPG 1450",
    "id": "B140210_2140210"
  },
  {
    "numer": 2140211,
    "kod": "B140211",
    "adres": "ul. Lindleya 4",
    "lon": 20.997672252246,
    "lat": 52.223783856444,
    "strefa": "Warszawa CPG 1450",
    "id": "B140211_2140211"
  },
  {
    "numer": 2140212,
    "kod": "B140212",
    "adres": "ul. Oczki 3",
    "lon": 20.998219260976,
    "lat": 52.223686243467,
    "strefa": "Warszawa CPG 1450",
    "id": "B140212_2140212"
  },
  {
    "numer": 2140213,
    "kod": "B140213",
    "adres": "ul. Siedmiogrodzka vis-a-vis 1A",
    "lon": 20.99878889307,
    "lat": 52.223915353307,
    "strefa": "Warszawa CPG 1450",
    "id": "B140213_2140213"
  },
  {
    "numer": 2140214,
    "kod": "B140214",
    "adres": "ul. Oczki 3",
    "lon": 20.999515629671,
    "lat": 52.223974271081,
    "strefa": "Warszawa CPG 1450",
    "id": "B140214_2140214"
  },
  {
    "numer": 2140215,
    "kod": "B140215",
    "adres": "ul. Oczki 5",
    "lon": 21.000725606483,
    "lat": 52.224248855905,
    "strefa": "Warszawa CPG 1450",
    "id": "B140215_2140215"
  },
  {
    "numer": 2140216,
    "kod": "B140216",
    "adres": "ul. Oczki 4",
    "lon": 21.001468846084,
    "lat": 52.224573884012,
    "strefa": "Warszawa CPG 1450",
    "id": "B140216_2140216"
  },
  {
    "numer": 2140219,
    "kod": "B140219",
    "adres": "ul. Chałubińskiego 5",
    "lon": 21.002910487181,
    "lat": 52.22547636121,
    "strefa": "Warszawa CPG 1450",
    "id": "B140219_2140219"
  },
  {
    "numer": 2140220,
    "kod": "B140220",
    "adres": "ul. Chałubińskiego - Nowogrodzka",
    "lon": 21.002385628994,
    "lat": 52.226375281594,
    "strefa": "Warszawa CPG 1450",
    "id": "B140220_2140220"
  },
  {
    "numer": 2140223,
    "kod": "B140223",
    "adres": "ul. Koszykowa 82 A",
    "lon": 20.99905661752,
    "lat": 52.223359559369,
    "strefa": "Warszawa CPG 1450",
    "id": "B140223_2140223"
  },
  {
    "numer": 2140224,
    "kod": "B140224",
    "adres": "ul. Chałubińskiego 3A",
    "lon": 21.003879264038,
    "lat": 52.224093845035,
    "strefa": "Warszawa CPG 1450",
    "id": "B140224_2140224"
  },
  {
    "numer": 2140225,
    "kod": "B140225",
    "adres": "ul. Chałubińskiego 3a",
    "lon": 21.004213459,
    "lat": 52.223472766155,
    "strefa": "Warszawa CPG 240",
    "id": "B140225_2140225"
  },
  {
    "numer": 2140226,
    "kod": "B140226",
    "adres": "ul. Chałubińskiego 3A",
    "lon": 21.004284673541,
    "lat": 52.22342849863,
    "strefa": "Warszawa CPG 1450",
    "id": "B140226_2140226"
  },
  {
    "numer": 2140227,
    "kod": "B140227",
    "adres": "ul. Koszykowa/Oczki",
    "lon": 20.996929202084,
    "lat": 52.223354120494,
    "strefa": "Warszawa CPG 1450",
    "id": "B140227_2140227"
  },
  {
    "numer": 2160101,
    "kod": "B160101",
    "adres": "al. Niepodległości 212",
    "lon": 21.005309943397,
    "lat": 52.217868990262,
    "strefa": "Warszawa CPG 1450",
    "id": "B160101_2160101"
  },
  {
    "numer": 2160102,
    "kod": "B160102",
    "adres": "ul. Płocka 37",
    "lon": 21.005220545373,
    "lat": 52.218586869027,
    "strefa": "Warszawa CPG 1450",
    "id": "B160102_2160102"
  },
  {
    "numer": 2160105,
    "kod": "B160105",
    "adres": "al. Niepodległości 235",
    "lon": 21.0044903,
    "lat": 52.2203877,
    "strefa": "Warszawa CPG 1450",
    "id": "B160105_2160105"
  },
  {
    "numer": 2160107,
    "kod": "B160107",
    "adres": "al. Niepodległości 235",
    "lon": 21.0045694,
    "lat": 52.2208957,
    "strefa": "Warszawa CPG 1450",
    "id": "B160107_2160107"
  },
  {
    "numer": 2160108,
    "kod": "B160108",
    "adres": "al. Niepodległości 245",
    "lon": 21.0045501,
    "lat": 52.2224571,
    "strefa": "Warszawa CPG 1450",
    "id": "B160108_2160108"
  },
  {
    "numer": 2160111,
    "kod": "B160111",
    "adres": "ul. Noakowskiego (Skwer)",
    "lon": 21.008406462985,
    "lat": 52.222479981802,
    "strefa": "Warszawa CPG 1450",
    "id": "B160111_2160111"
  },
  {
    "numer": 2160119,
    "kod": "B160119",
    "adres": "ul. Nowowiejska 31",
    "lon": 21.006471133159,
    "lat": 52.219988229854,
    "strefa": "Warszawa CPG 1450",
    "id": "B160119_2160119"
  },
  {
    "numer": 2160122,
    "kod": "B160122",
    "adres": "ul. Nowowiejska 27",
    "lon": 21.007375272556,
    "lat": 52.219974236398,
    "strefa": "Warszawa CPG 1450",
    "id": "B160122_2160122"
  },
  {
    "numer": 2160124,
    "kod": "B160124",
    "adres": "ul. Nowowiejska 21-25",
    "lon": 21.009424597817,
    "lat": 52.219922762741,
    "strefa": "Warszawa CPG 1450",
    "id": "B160124_2160124"
  },
  {
    "numer": 2160125,
    "kod": "B160125",
    "adres": "ul. Nowowiejska 25",
    "lon": 21.010469417877,
    "lat": 52.219897543612,
    "strefa": "Warszawa CPG 1450",
    "id": "B160125_2160125"
  },
  {
    "numer": 2160126,
    "kod": "B160126",
    "adres": "ul. Filtrowa 3",
    "lon": 21.00698042242,
    "lat": 52.218716172082,
    "strefa": "Warszawa CPG 1450",
    "id": "B160126_2160126"
  },
  {
    "numer": 2160131,
    "kod": "B160131",
    "adres": "ul. Polna rej. Nowowiejska 15/19",
    "lon": 21.012919269826,
    "lat": 52.219409192123,
    "strefa": "Warszawa CPG 1450",
    "id": "B160131_2160131"
  },
  {
    "numer": 2160132,
    "kod": "B160132",
    "adres": "ul. Polna 13 (bazar)",
    "lon": 21.014303155258,
    "lat": 52.218406611497,
    "strefa": "Warszawa CPG 1450",
    "id": "B160132_2160132"
  },
  {
    "numer": 2160133,
    "kod": "B160133",
    "adres": "ul. Podoskich",
    "lon": 21.01312208965,
    "lat": 52.217532727613,
    "strefa": "Warszawa CPG 1450",
    "id": "B160133_2160133"
  },
  {
    "numer": 2160134,
    "kod": "B160134",
    "adres": "ul. Polna - Podoskich",
    "lon": 21.013274954655,
    "lat": 52.218878344437,
    "strefa": "Warszawa CPG 1450",
    "id": "B160134_2160134"
  },
  {
    "numer": 2160201,
    "kod": "B160201",
    "adres": "ul. Skierniewicka vis-a-vis 19",
    "lon": 21.014395933256,
    "lat": 52.218571583209,
    "strefa": "Warszawa CPG 1450",
    "id": "B160201_2160201"
  },
  {
    "numer": 2160202,
    "kod": "B160202",
    "adres": "ul. Polna 46",
    "lon": 21.013930319429,
    "lat": 52.218896453471,
    "strefa": "Warszawa CPG 1450",
    "id": "B160202_2160202"
  },
  {
    "numer": 2160203,
    "kod": "B160203",
    "adres": "ul. Polna 50",
    "lon": 21.013405177017,
    "lat": 52.219252986728,
    "strefa": "Warszawa CPG 1450",
    "id": "B160203_2160203"
  },
  {
    "numer": 2160204,
    "kod": "B160204",
    "adres": "ul. Noakowskiego 4",
    "lon": 21.011657104677,
    "lat": 52.220430408355,
    "strefa": "Warszawa CPG 1450",
    "id": "B160204_2160204"
  },
  {
    "numer": 2160205,
    "kod": "B160205",
    "adres": "ul. Noakowskiego 12",
    "lon": 21.010337513503,
    "lat": 52.221359879703,
    "strefa": "Warszawa CPG 1450",
    "id": "B160205_2160205"
  },
  {
    "numer": 2160206,
    "kod": "B160206",
    "adres": "ul. Noakowskiego 24",
    "lon": 21.009120910916,
    "lat": 52.222220052929,
    "strefa": "Warszawa CPG 1450",
    "id": "B160206_2160206"
  },
  {
    "numer": 2160210,
    "kod": "B160210",
    "adres": "ul. E. Tyszkiewicza / J. Długosza",
    "lon": 21.0126124,
    "lat": 52.2219197,
    "strefa": "Warszawa CPG 1450",
    "id": "B160210_2160210"
  },
  {
    "numer": 2160211,
    "kod": "B160211",
    "adres": "ul. Lwowska 13",
    "lon": 21.0124321,
    "lat": 52.2219842,
    "strefa": "Warszawa CPG 1450",
    "id": "B160211_2160211"
  },
  {
    "numer": 2160212,
    "kod": "B160212",
    "adres": "ul. Karolkowa 28",
    "lon": 21.0124835,
    "lat": 52.221249,
    "strefa": "Warszawa CPG 1450",
    "id": "B160212_2160212"
  },
  {
    "numer": 2160213,
    "kod": "B160213",
    "adres": "ul. Lwowska 9",
    "lon": 21.0122803,
    "lat": 52.2211694,
    "strefa": "Warszawa CPG 1450",
    "id": "B160213_2160213"
  },
  {
    "numer": 2160216,
    "kod": "B160216",
    "adres": "ul. Lwowska 2",
    "lon": 21.012371676186,
    "lat": 52.220653862142,
    "strefa": "Warszawa CPG 1450",
    "id": "B160216_2160216"
  },
  {
    "numer": 2160218,
    "kod": "B160218",
    "adres": "ul. Śniadeckich 21",
    "lon": 21.0129874263,
    "lat": 52.220360632393,
    "strefa": "Warszawa CPG 1450",
    "id": "B160218_2160218"
  },
  {
    "numer": 2160219,
    "kod": "B160219",
    "adres": "ul. Śniadeckich 17",
    "lon": 21.013861710901,
    "lat": 52.220798304646,
    "strefa": "Warszawa CPG 1450",
    "id": "B160219_2160219"
  },
  {
    "numer": 2160220,
    "kod": "B160220",
    "adres": "ul. Śniadeckich 12-16",
    "lon": 21.013485062974,
    "lat": 52.220760474689,
    "strefa": "Warszawa CPG 1450",
    "id": "B160220_2160220"
  },
  {
    "numer": 2160221,
    "kod": "B160221",
    "adres": "ul. Śniadeckich 1-15",
    "lon": 21.0146542942,
    "lat": 52.221207870054,
    "strefa": "Warszawa CPG 1450",
    "id": "B160221_2160221"
  },
  {
    "numer": 2160222,
    "kod": "B160222",
    "adres": "ul. Leszno 9",
    "lon": 21.014359905081,
    "lat": 52.221212304957,
    "strefa": "Warszawa CPG 1450",
    "id": "B160222_2160222"
  },
  {
    "numer": 2160224,
    "kod": "B160224",
    "adres": "ul. Waryńskiego 9",
    "lon": 21.015506307393,
    "lat": 52.220700166132,
    "strefa": "Warszawa CPG 1450",
    "id": "B160224_2160224"
  },
  {
    "numer": 2160226,
    "kod": "B160226",
    "adres": "ul. Nowowiejska 10",
    "lon": 21.014839301237,
    "lat": 52.220007228598,
    "strefa": "Warszawa CPG 1450",
    "id": "B160226_2160226"
  },
  {
    "numer": 2160227,
    "kod": "B160227",
    "adres": "ul. Nowowiejska (dom Makl)",
    "lon": 21.014064348407,
    "lat": 52.219829656328,
    "strefa": "Warszawa CPG 1450",
    "id": "B160227_2160227"
  },
  {
    "numer": 2160228,
    "kod": "B160228",
    "adres": "ul. Nowowiejska 12-18",
    "lon": 21.013197796448,
    "lat": 52.220017895067,
    "strefa": "Warszawa CPG 1450",
    "id": "B160228_2160228"
  },
  {
    "numer": 2160230,
    "kod": "B160230",
    "adres": "Al. Armii Ludowej 28",
    "lon": 21.006510762129,
    "lat": 52.217497374677,
    "strefa": "Warszawa CPG 1450",
    "id": "B160230_2160230"
  },
  {
    "numer": 2210101,
    "kod": "B210101",
    "adres": "al. Solidarności(sąd)",
    "lon": 20.992396355967,
    "lat": 52.24164602174,
    "strefa": "Warszawa CPG 1450",
    "id": "B210101_2210101"
  },
  {
    "numer": 2210102,
    "kod": "B210102",
    "adres": "ul. Szarych Szeregów / E. Zegadłowicza",
    "lon": 20.9917497,
    "lat": 52.2414544,
    "strefa": "Warszawa CPG 1450",
    "id": "B210102_2210102"
  },
  {
    "numer": 2210103,
    "kod": "B210103",
    "adres": "al. Solidarności 84",
    "lon": 20.991059108659,
    "lat": 52.241387534506,
    "strefa": "Warszawa CPG 1450",
    "id": "B210103_2210103"
  },
  {
    "numer": 2210104,
    "kod": "B210104",
    "adres": "ul. Żelazna 89",
    "lon": 20.987536223378,
    "lat": 52.239017704513,
    "strefa": "Warszawa CPG 1450",
    "id": "B210104_2210104"
  },
  {
    "numer": 2210105,
    "kod": "B210105",
    "adres": "ul. Żelazna 82",
    "lon": 20.987700302956,
    "lat": 52.239277884048,
    "strefa": "Warszawa CPG 1450",
    "id": "B210105_2210105"
  },
  {
    "numer": 2210106,
    "kod": "B210106",
    "adres": "al. Solidarności 145",
    "lon": 20.9886066,
    "lat": 52.2400951,
    "strefa": "Warszawa CPG 1450",
    "id": "B210106_2210106"
  },
  {
    "numer": 2210107,
    "kod": "B210107",
    "adres": "al. Solidarności 129",
    "lon": 20.989751082226,
    "lat": 52.240446864999,
    "strefa": "Warszawa CPG 1450",
    "id": "B210107_2210107"
  },
  {
    "numer": 2210108,
    "kod": "B210108",
    "adres": "ul. Dobrzańskiego",
    "lon": 20.991366752896,
    "lat": 52.240661576536,
    "strefa": "Warszawa CPG 1450",
    "id": "B210108_2210108"
  },
  {
    "numer": 2210109,
    "kod": "B210109",
    "adres": "al. Solidarności 125b",
    "lon": 20.9926628,
    "lat": 52.2414018,
    "strefa": "Warszawa CPG 1450",
    "id": "B210109_2210109"
  },
  {
    "numer": 2210110,
    "kod": "B210110",
    "adres": "ul. Ogrodowa 4",
    "lon": 20.993796396252,
    "lat": 52.240447726039,
    "strefa": "Warszawa CPG 1450",
    "id": "B210110_2210110"
  },
  {
    "numer": 2210111,
    "kod": "B210111",
    "adres": "ul. Ogrodowa 6",
    "lon": 20.992659801535,
    "lat": 52.239935996819,
    "strefa": "Warszawa CPG 1450",
    "id": "B210111_2210111"
  },
  {
    "numer": 2210112,
    "kod": "B210112",
    "adres": "ul. Dobrzańskiego",
    "lon": 20.991868928824,
    "lat": 52.239848594762,
    "strefa": "Warszawa CPG 1450",
    "id": "B210112_2210112"
  },
  {
    "numer": 2210113,
    "kod": "B210113",
    "adres": "ul. Ogrodowa 8",
    "lon": 20.99127012602,
    "lat": 52.239638706806,
    "strefa": "Warszawa CPG 1450",
    "id": "B210113_2210113"
  },
  {
    "numer": 2210114,
    "kod": "B210114",
    "adres": "ul. Zwrotnicza / Kolejowa",
    "lon": 20.991808108688,
    "lat": 52.239643813029,
    "strefa": "Warszawa CPG 1450",
    "id": "B210114_2210114"
  },
  {
    "numer": 2210115,
    "kod": "B210115",
    "adres": "ul. Biała 4",
    "lon": 20.991402787792,
    "lat": 52.238761834652,
    "strefa": "Warszawa CPG 1450",
    "id": "B210115_2210115"
  },
  {
    "numer": 2210116,
    "kod": "B210116",
    "adres": "ul. Ogrodowa 11",
    "lon": 20.989967987522,
    "lat": 52.239017182313,
    "strefa": "Warszawa CPG 1450",
    "id": "B210116_2210116"
  },
  {
    "numer": 2210117,
    "kod": "B210117",
    "adres": "ul. S. Krzyżanowskiego 40A",
    "lon": 20.989777539264,
    "lat": 52.239213681661,
    "strefa": "Warszawa CPG 1450",
    "id": "B210117_2210117"
  },